address,address_clean,lat,lon
"751 COUNTRY LANE, LAKE PARK, Georgia 31636-0000","751 COUNTRY LANE, LAKE PARK, Georgia 31636",30.6851827,-83.2126146
"149 HWY 94 EAST, STATENVILLE, Georgia 31648-2018","149 HWY 94 EAST, STATENVILLE, Georgia 31648",30.703514,-83.027371
"905 DILWORTH STREET, SAINT MARYS, Georgia 31558-8695","905 DILWORTH STREET, SAINT MARYS, Georgia 31558",30.731615,-81.557461
"2040 DAN PROCTOR DR, ST MARYS, Georgia 31558","2040 DAN PROCTOR DR, ST MARYS, Georgia 31558",30.7788147,-81.6151406
"51 LINDSEY LANE, ST. MARYS, Georgia 31558","51 LINDSEY LANE, ST. MARYS, Georgia 31558",30.7838808,-81.6153625
"907 N COURT STREET, QUITMAN, Georgia 31643","907 N COURT STREET, QUITMAN, Georgia 31643",30.7954764,-83.5594258
"500 EAST COURTLAND AVENUE, QUITMAN, Georgia 31643-1165","500 EAST COURTLAND AVENUE, QUITMAN, Georgia 31643",30.7975418,-83.5580685
"711 CHARLES GILMAN JR. AVE STE B, KINGSLAND, Georgia 31548","711 CHARLES GILMAN JR. AVE STE B, KINGSLAND, Georgia 31548",30.8019269,-81.6480995
"400 SOUTH PINETREE BLVD., THOMASVILLE, Georgia 31792-7128","400 SOUTH PINETREE BLVD., THOMASVILLE, Georgia 31792",30.813421,-83.992574
"951 SOUTH BROAD STREET, THOMASVILLE, Georgia 31792-6161","951 SOUTH BROAD STREET, THOMASVILLE, Georgia 31792",30.8263291,-83.9697259
"116 ROSEDALE AVE, THOMASVILLE, Georgia 31792","116 ROSEDALE AVE, THOMASVILLE, Georgia 31792",30.8290401,-83.976468
"509 GORDON AVENUE, THOMASVILLE, Georgia 31792-6645","509 GORDON AVENUE, THOMASVILLE, Georgia 31792",30.8295952,-83.9752711
"206 SOUTH PATTERSON STREET, VALDOSTA, Georgia 31601-5668","206 SOUTH PATTERSON STREET, VALDOSTA, Georgia 31601",30.8297153,-83.2783807
"484 SMITH AVENUE, THOMASVILLE, Georgia 31792-5535","484 SMITH AVENUE, THOMASVILLE, Georgia 31792",30.8354598,-83.9723396
"454 SMITH AVENUE, THOMASVILLE, Georgia 31792","454 SMITH AVENUE, THOMASVILLE, Georgia 31792",30.8354691,-83.9729302
"2587 THIRD STREET, FOLKSTON, Georgia 31537-8964","2587 THIRD STREET, FOLKSTON, Georgia 31537",30.8393621,-82.0051254
"105 WEST CRANFORD AVENUE, VALDOSTA, Georgia 31602-2930","105 WEST CRANFORD AVENUE, VALDOSTA, Georgia 31602",30.855272,-83.2889818
"1178 5TH STREET SE, CAIRO, Georgia 39828-3141","1178 5TH STREET SE, CAIRO, Georgia 39828",30.8629886,-84.2001356
"1030 4TH STREET SE, CAIRO, Georgia 39828-3000","1030 4TH STREET SE, CAIRO, Georgia 39828",30.8649442,-84.2011043
"980 4TH STREET SE, CAIRO, Georgia 39828","980 4TH STREET SE, CAIRO, Georgia 39828",30.8654629,-84.2013059
"2704 N. OAK ST., VALDOSTA, Georgia 31602-4725","2704 N. OAK ST., VALDOSTA, Georgia 31602",30.8668669,-83.2923527
"2707 BARACK OBAMA BLVD, VALDOSTA, Georgia 31602","2707 BARACK OBAMA BLVD, VALDOSTA, Georgia 31602",30.8684537,-83.265905
"406 M NORTHSIDE DRIVE, VALDOSTA, Georgia 31602","406 M NORTHSIDE DRIVE, VALDOSTA, Georgia 31602",30.871847,-83.2824603
"3440 NORTH VALDOSTA ROAD, VALDOSTA, Georgia 31602-1079","3440 NORTH VALDOSTA ROAD, VALDOSTA, Georgia 31602",30.8796656,-83.3019134
"1 DOCTORS PARK, CAIRO, Georgia 39828-3072","1 DOCTORS PARK, CAIRO, Georgia 39828",30.882304,-84.194919
"3301 NORTH OAK STREET EXT, VALDOSTA, Georgia 31605","3301 NORTH OAK STREET EXT, VALDOSTA, Georgia 31605",30.884066,-83.291702
"603 SOUTH WHEAT AVENUE, BAINBRIDGE, Georgia 39819-4369","603 SOUTH WHEAT AVENUE, BAINBRIDGE, Georgia 39819",30.8961554,-84.5533356
"928 S. WEST STREET, BAINBRIDGE, Georgia 39819-0000","928 S. WEST STREET, BAINBRIDGE, Georgia 39819",30.8966811,-84.5765074
"509 WHEAT AVENUE, BAINBRIDGE, Georgia 39819","509 WHEAT AVENUE, BAINBRIDGE, Georgia 39819",30.9017116,-84.5536567
"1500 E. SHOTWELL STREET, BAINBRIDGE, Georgia 39819","1500 E. SHOTWELL STREET, BAINBRIDGE, Georgia 39819",30.902896,-84.5522368
"503 WEST MAIN STREET, HAHIRA, Georgia 31632-1028","503 WEST MAIN STREET, HAHIRA, Georgia 31632",30.9907715,-83.3751341
"53 W. MURRELL STREET, LAKELAND, Georgia 31635-6836","53 W. MURRELL STREET, LAKELAND, Georgia 31635",31.039368,-83.077036
"285 SWEAT STREET, HOMERVILLE, Georgia 31634-2301","285 SWEAT STREET, HOMERVILLE, Georgia 31634",31.0394591,-82.7449088
"205 BRESEE STREET, DONALSONVILLE, Georgia 39845","205 BRESEE STREET, DONALSONVILLE, Georgia 39845",31.0508991,-84.8794695
"904 NORTH WILEY AVENUE, DONALSONVILLE, Georgia 39845-1127","904 NORTH WILEY AVENUE, DONALSONVILLE, Georgia 39845",31.0510483,-84.8801651
"172 M.J. TAYLOR ROAD, ADEL, Georgia 31620-1504","172 M.J. TAYLOR ROAD, ADEL, Georgia 31620",31.1102182,-83.4271667
"8 LAUREL COURT, MOULTRIE, Georgia 31768-6889","8 LAUREL COURT, MOULTRIE, Georgia 31768",31.1234086,-83.7796375
"3131 S. MAIN ST, MOULTRIE, Georgia 31768","3131 S. MAIN ST, MOULTRIE, Georgia 31768",31.1260539,-83.7803152
"6 HOSPITAL PARK, MOULTRIE, Georgia 31768-6700","6 HOSPITAL PARK, MOULTRIE, Georgia 31768",31.1277,-83.778651
"760 26TH AVENUE, MOULTRIE, Georgia 31768","760 26TH AVENUE, MOULTRIE, Georgia 31768",31.137261,-83.773942
"204 NORTH PARRISH AVENUE, ADEL, Georgia 31620-2327","204 NORTH PARRISH AVENUE, ADEL, Georgia 31620",31.1389492,-83.4226202
"707 NORTH PARRISH AVENUE, ADEL, Georgia 31620-2063","707 NORTH PARRISH AVENUE, ADEL, Georgia 31620",31.1443786,-83.4248585
"7000 WELLNESS WAY, ST SIMONS ISLAND, Georgia 31522","7000 WELLNESS WAY, ST SIMONS ISLAND, Georgia 31522",31.147044,-81.387356
"250 WEST PINE STREET, COLQUITT, Georgia 39837-3532","250 WEST PINE STREET, COLQUITT, Georgia 39837",31.1742357,-84.7370784
"103 WEST PINE ST, COLQUITT, Georgia 39837-3434","103 WEST PINE ST, COLQUITT, Georgia 39837",31.1742357,-84.7370784
"208 N CUTHBERT STREET, COLQUITT, Georgia 39837-3517","208 N CUTHBERT STREET, COLQUITT, Georgia 39837",31.1743949,-84.7346654
"2314 STARLING STREET, BRUNSWICK, Georgia 31520-4215","2314 STARLING STREET, BRUNSWICK, Georgia 31520",31.1757497,-81.4871601
"3208 SHRINE ROAD, BRUNSWICK, Georgia 31520-4325","3208 SHRINE ROAD, BRUNSWICK, Georgia 31520",31.1776481,-81.4814446
"214 WEST CENTRAL AVENUE, MOULTRIE, Georgia 31768-3834","214 WEST CENTRAL AVENUE, MOULTRIE, Georgia 31768",31.1800404,-83.7927245
"2747 FOURTH STREET, BRUNSWICK, Georgia 31520-3714","2747 FOURTH STREET, BRUNSWICK, Georgia 31520",31.180809,-81.481072
"2747 4TH STREET, BRUNSWICK, Georgia 31520-3714","2747 4TH STREET, BRUNSWICK, Georgia 31520",31.181817,-81.4798303
"3300 FOURTH STREET, BRUNSWICK, Georgia 31520","3300 FOURTH STREET, BRUNSWICK, Georgia 31520",31.18221,-81.475962
"600-A S. JEFFERSON ST., NASHVILLE, Georgia 31639-2651","600-A S. JEFFERSON ST., NASHVILLE, Georgia 31639",31.1984857,-83.2502019
"1701-3 BOULEVARD SQUARE, WAYCROSS, Georgia 31501","1701-3 BOULEVARD SQUARE, WAYCROSS, Georgia 31501",31.2095305,-82.3340945
"218 QUARTERMAN STREET, WAYCROSS, Georgia 31501-3547","218 QUARTERMAN STREET, WAYCROSS, Georgia 31501",31.2178287,-82.3512159
"173 FLORIDA AVENUE, NAHUNTA, Georgia 31553-6053","173 FLORIDA AVENUE, NAHUNTA, Georgia 31553",31.21811,-81.9817185
"1102 PLANT AVENUE, WAYCROSS, Georgia 31501","1102 PLANT AVENUE, WAYCROSS, Georgia 31501",31.2182388,-82.3479187
"106 SHOPPERS WAY, BRUNSWICK, Georgia 31525","106 SHOPPERS WAY, BRUNSWICK, Georgia 31525",31.219299,-81.48826
"303 DARLING AVENUE, WAYCROSS, Georgia 31501-5223","303 DARLING AVENUE, WAYCROSS, Georgia 31501",31.2229914,-82.3466074
"604 RIVERSIDE AVENUE, WAYCROSS, Georgia 31501-5323","604 RIVERSIDE AVENUE, WAYCROSS, Georgia 31501",31.2243091,-82.3530447
"25 PERRY STREET, CAMILLA, Georgia 31730-1813","25 PERRY STREET, CAMILLA, Georgia 31730",31.230213,-84.206195
"88 W. OAKLAND AVENUE, CAMILLA, Georgia 31730-1254","88 W. OAKLAND AVENUE, CAMILLA, Georgia 31730",31.2326314,-84.2119324
"94 E OAKLAND AVE, CAMILLA, Georgia 31730-1705","94 E OAKLAND AVE, CAMILLA, Georgia 31730",31.2326762,-84.2052603
"801 BEACON STREET, WAYCROSS, Georgia 31501-7109","801 BEACON STREET, WAYCROSS, Georgia 31501",31.239474,-82.35749
"1000 NEWTON ROAD, CAMILLA, Georgia 31730","1000 NEWTON ROAD, CAMILLA, Georgia 31730",31.2434105,-84.2393162
"1111 GLYNCO PKWY STE 31, BRUNSWICK, Georgia 31523-6381","1111 GLYNCO PKWY STE 31, BRUNSWICK, Georgia 31523",31.247736,-81.483323
"461 ALBANY AVENUE EAST, PEARSON, Georgia 31642-0000","461 ALBANY AVENUE EAST, PEARSON, Georgia 31642",31.2965597,-82.8434122
"715 WARE STREET, BLACKSHEAR, Georgia 31516","715 WARE STREET, BLACKSHEAR, Georgia 31516",31.30232,-82.2518543
"125 HOBBS ST, BLACKSHEAR, Georgia 31516","125 HOBBS ST, BLACKSHEAR, Georgia 31516",31.3131289,-82.2412443
"327 SUNSET AVENUE, NEWTON, Georgia 39870-7343","327 SUNSET AVENUE, NEWTON, Georgia 39870",31.313475,-84.3443575
"618 FLOWERS DRIVE, BLAKELY, Georgia 39823-2804","618 FLOWERS DRIVE, BLAKELY, Georgia 39823",31.3702497,-84.9470964
"360 COLLEGE STREET, BLAKELY, Georgia 39823-2554","360 COLLEGE STREET, BLAKELY, Georgia 39823",31.3793085,-84.9381901
"283 MARTIN LUTHER KING JR. BLVD, BLAKELY, Georgia 39823","283 MARTIN LUTHER KING JR. BLVD, BLAKELY, Georgia 39823",31.3904604,-84.9409796
"1305 E. SECOND AVENUE, ALBANY, Georgia 31705","1305 E. SECOND AVENUE, ALBANY, Georgia 31705",31.402984,-83.982118
"103 R.E. JENNINGS AVE SE, ARLINGTON, Georgia 39813","103 R.E. JENNINGS AVE SE, ARLINGTON, Georgia 39813",31.4381752,-84.7218539
"1909 US HWY 82, TIFTON, Georgia 31793","1909 US HWY 82, TIFTON, Georgia 31793",31.4459128,-83.544258
"305 E. 12TH ST., TIFTON, Georgia 31794","305 E. 12TH ST., TIFTON, Georgia 31794",31.4628969,-83.5047628
"215 12TH STREET W, TIFTON, Georgia 31794","215 12TH STREET W, TIFTON, Georgia 31794",31.4644357,-83.5093965
"1205 NORTH TIFT AVENUE, TIFTON, Georgia 31794-4033","1205 NORTH TIFT AVENUE, TIFTON, Georgia 31794",31.4658319,-83.502855
"72 KENT ROAD, TIFTON, Georgia 31794","72 KENT ROAD, TIFTON, Georgia 31794",31.472822,-83.4843304
"39 KENT ROAD SUIT 5, TIFTON, Georgia 31794-2749","39 KENT ROAD SUIT 5, TIFTON, Georgia 31794",31.474041,-83.485278
"1111 W. BAKER HIGHWAY WEST, DOUGLAS, Georgia 31533-2107","1111 W. BAKER HIGHWAY WEST, DOUGLAS, Georgia 31533",31.5009372,-82.8632576
"310 WEST BRYAN ST., DOUGLAS, Georgia 31533-2123","310 WEST BRYAN ST., DOUGLAS, Georgia 31533",31.506464,-82.853743
"1020 W BRYAN STREET, DOUGLAS, Georgia 31533-2328","1020 W BRYAN STREET, DOUGLAS, Georgia 31533",31.5067923,-82.8618755
"303 SHIRLEY AVENUE SUITE B, DOUGLAS, Georgia 31533","303 SHIRLEY AVENUE SUITE B, DOUGLAS, Georgia 31533",31.5075132,-82.8616551
"100 DOCTORS DRIVE, DOUGLAS, Georgia 31533-2211","100 DOCTORS DRIVE, DOUGLAS, Georgia 31533",31.5109445,-82.8662708
"203 WEST KELLY STREET, SYLVESTER, Georgia 31791","203 WEST KELLY STREET, SYLVESTER, Georgia 31791",31.5276302,-83.8391034
"302 NORTH WEST BERRY ST, SYLVESTER, Georgia 31791-7554","302 NORTH WEST BERRY ST, SYLVESTER, Georgia 31791",31.528989,-83.833714
"1012 WEST FRANKLIN STREET, SYLVESTER, Georgia 31791-4405","1012 WEST FRANKLIN STREET, SYLVESTER, Georgia 31791",31.5360769,-83.8618829
"210 EAST 16TH STREET, ALMA, Georgia 31510","210 EAST 16TH STREET, ALMA, Georgia 31510",31.5390626,-82.4609773
"29040 NORTH BERMUDA STREET, MORGAN, Georgia 39866-3516","29040 NORTH BERMUDA STREET, MORGAN, Georgia 39866",31.5391592,-84.5995348
"204 E. 15TH ST, ALMA, Georgia 31510","204 E. 15TH ST, ALMA, Georgia 31510",31.5398019,-82.460885
"1112 WEST 12TH STREET, ALMA, Georgia 31510","1112 WEST 12TH STREET, ALMA, Georgia 31510",31.5430983,-82.4878996
"101 NORTH WAYNE STREET, ALMA, Georgia 31510-2540","101 NORTH WAYNE STREET, ALMA, Georgia 31510",31.54447,-82.458602
"1425 WEST OAKRIDGE DRIVE, ALBANY, Georgia 31707","1425 WEST OAKRIDGE DRIVE, ALBANY, Georgia 31707",31.5492729,-84.1898628
"1710 SOUTH SLAPPEY BOULEVARD, ALBANY, Georgia 31701-2634","1710 SOUTH SLAPPEY BOULEVARD, ALBANY, Georgia 31701",31.5559442,-84.1767112
"1300 NEWTON ROAD, ALBANY, Georgia 31701","1300 NEWTON ROAD, ALBANY, Georgia 31701",31.5617899,-84.1636245
"521 LAX HIGHWAY, OCILLA, Georgia 31774","521 LAX HIGHWAY, OCILLA, Georgia 31774",31.574307,-83.228118
"1712-A EAST BROAD AVENUE, ALBANY, Georgia 31705","1712-A EAST BROAD AVENUE, ALBANY, Georgia 31705",31.5764507,-84.1146819
"2001 LEONARD DRIVE, ALBANY, Georgia 31705","2001 LEONARD DRIVE, ALBANY, Georgia 31705",31.576575,-84.100954
"4529 GILLIONVILLE ROAD, ALBANY, Georgia 31721","4529 GILLIONVILLE ROAD, ALBANY, Georgia 31721",31.5856776,-84.2286865
"901 NORTH MADISON STREET, ALBANY, Georgia 31701","901 NORTH MADISON STREET, ALBANY, Georgia 31701",31.588965,-84.162064
"1110 NORTH MONROE STREET, ALBANY, Georgia 31701-1949","1110 NORTH MONROE STREET, ALBANY, Georgia 31701",31.5917673,-84.1589711
"1700 CORDELL AVE., ALBANY, Georgia 31705","1700 CORDELL AVE., ALBANY, Georgia 31705",31.5927833,-84.1150844
"407 WEST FOURTH STREET, OCILLA, Georgia 31774-1463","407 WEST FOURTH STREET, OCILLA, Georgia 31774",31.594237,-83.254737
"813 NORTH IRWIN AVE, OCILLA, Georgia 31774","813 NORTH IRWIN AVE, OCILLA, Georgia 31774",31.5965363,-83.2504612
"240 PEACHTREE STREET, JESUP, Georgia 31545-0212","240 PEACHTREE STREET, JESUP, Georgia 31545",31.6006718,-81.8990041
"1801 PALMYRA ROAD, ALBANY, Georgia 31701-1572","1801 PALMYRA ROAD, ALBANY, Georgia 31701",31.6006935,-84.1667166
"391 PEACHTREE STREET, JESUP, Georgia 31545-0209","391 PEACHTREE STREET, JESUP, Georgia 31545",31.6007775,-81.8984226
"391 PEACHTREE STREET, JESUP, Georgia 31545-0245","391 PEACHTREE STREET, JESUP, Georgia 31545",31.6007775,-81.8984226
"WAYNE MEMORIAL HOSPITAL, JESUP, Georgia 31545","WAYNE MEMORIAL HOSPITAL, JESUP, Georgia 31545",31.6008496,-81.900261
"176 MEMORIAL DRIVE, JESUP, Georgia 31545-0101","176 MEMORIAL DRIVE, JESUP, Georgia 31545",31.6023899,-81.9009656
"2000 SCHILLING AVE., ALBANY, Georgia 31705","2000 SCHILLING AVE., ALBANY, Georgia 31705",31.603125,-84.104341
"2336 DAWSON ROAD, ALBANY, Georgia 31707-2442","2336 DAWSON ROAD, ALBANY, Georgia 31707",31.6035586,-84.204672
"101 HARTFORD RD. WEST SUITE 2, FORT GAINES, Georgia 39851-3611","101 HARTFORD RD. WEST SUITE 2, FORT GAINES, Georgia 39851",31.603818,-85.050204
"1912 ARLINGTON LANE, ALBANY, Georgia 31701","1912 ARLINGTON LANE, ALBANY, Georgia 31701",31.606064,-84.1678257
"2100 PALMYRA ROAD, ALBANY, Georgia 31701","2100 PALMYRA ROAD, ALBANY, Georgia 31701",31.606859,-84.172288
"1909 ABERDEEN ROAD, ALBANY, Georgia 31701-1300","1909 ABERDEEN ROAD, ALBANY, Georgia 31701",31.606984,-84.1672645
"2000 PALMYRA ROAD, ALBANY, Georgia 31701","2000 PALMYRA ROAD, ALBANY, Georgia 31701",31.6070142,-84.1696228
"2701 MEREDYTH DRIVE, ALBANY, Georgia 31707-2267","2701 MEREDYTH DRIVE, ALBANY, Georgia 31707",31.610638,-84.2219616
"600 POINTE NORTH BLVD., ALBANY, Georgia 31721","600 POINTE NORTH BLVD., ALBANY, Georgia 31721",31.610777,-84.225796
"200 HOBBS LANE, FORT GAINES, Georgia 39851-3319","200 HOBBS LANE, FORT GAINES, Georgia 39851",31.617845,-85.045695
"1390 US HIGHWAY 19 SOUTH, LEESBURG, Georgia 31763-4831","1390 US HIGHWAY 19 SOUTH, LEESBURG, Georgia 31763",31.63712,-84.175886
"1205 HWY 19 SOUTH, LEESBURG, Georgia 31763","1205 HWY 19 SOUTH, LEESBURG, Georgia 31763",31.666563,-84.172866
"251 APPOMATTOX ROAD, FITZGERALD, Georgia 31750-3757","251 APPOMATTOX ROAD, FITZGERALD, Georgia 31750",31.6951195,-83.2568546
"299 BENJAMIN HILL DRIVE, FITZGERALD, Georgia 31750-8855","299 BENJAMIN HILL DRIVE, FITZGERALD, Georgia 31750",31.6971876,-83.2392435
"101 OAKLAND CROSSING DR, LEESBURG, Georgia 31763","101 OAKLAND CROSSING DR, LEESBURG, Georgia 31763",31.697862,-84.219865
"1335 HWY 57, TOWNSEND, Georgia 31331-8211","1335 HWY 57, TOWNSEND, Georgia 31331",31.701324,-81.736221
"745 HUDSON AVENUE, ASHBURN, Georgia 31714-5312","745 HUDSON AVENUE, ASHBURN, Georgia 31714",31.710753,-83.6432049
"340 US HIGHWAY 19 S, LEESBURG, Georgia 31763-4872","340 US HIGHWAY 19 S, LEESBURG, Georgia 31763",31.715503,-84.172208
"124 ANDREWS WAY, SAINT MARYS, Georgia 31558-1653","124 ANDREWS WAY, SAINT MARYS, Georgia 31558",31.717757,-82.199225
"39 A ANDREWS WAY, SAINT MARYS, Georgia 31558-1633","39 A ANDREWS WAY, SAINT MARYS, Georgia 31558",31.718078,-82.200016
"126 HWY280 W, AMERICUS, Georgia 31719","126 HWY280 W, AMERICUS, Georgia 31719",31.718723,-84.348115
"118 ROBERT B. LEE DR., LEESBURG, Georgia 31763","118 ROBERT B. LEE DR., LEESBURG, Georgia 31763",31.7197102,-84.154151
"584 NORTH MACON STREET, LUDOWICI, Georgia 31316-5958","584 NORTH MACON STREET, LUDOWICI, Georgia 31316",31.721643,-81.750213
"455 GREENWAVE DRIVE, DAWSON, Georgia 39842","455 GREENWAVE DRIVE, DAWSON, Georgia 39842",31.723566,-84.350335
"1636 HATCH PARKWAY SOUTH, BAXLEY, Georgia 31513","1636 HATCH PARKWAY SOUTH, BAXLEY, Georgia 31513",31.7561559,-82.3600408
"1666 ALBANY HWY, DAWSON, Georgia 39842","1666 ALBANY HWY, DAWSON, Georgia 39842",31.7581323,-84.4300394
"969 FORRESTER DRIVE SE, DAWSON, Georgia 39842-2106","969 FORRESTER DRIVE SE, DAWSON, Georgia 39842",31.7608886,-84.4358084
"505 FORRESTER DR SE, DAWSON, Georgia 39842","505 FORRESTER DR SE, DAWSON, Georgia 39842",31.7635665,-84.444554
"105 EAST TOLLISON STREET, BAXLEY, Georgia 31513-0150","105 EAST TOLLISON STREET, BAXLEY, Georgia 31513",31.769878,-82.351365
"283 WALNUT STREET, BAXLEY, Georgia 31513","283 WALNUT STREET, BAXLEY, Georgia 31513",31.7702194,-82.3474723
"134 JC HUNTER DRIVE, FITZGERALD, Georgia 31750","134 JC HUNTER DRIVE, FITZGERALD, Georgia 31750",31.77084,-83.17442
"207 NORTH WEBSTER STREET, CUTHBERT, Georgia 39840-2523","207 NORTH WEBSTER STREET, CUTHBERT, Georgia 39840",31.7753505,-84.7858739
"18 LUCKIE STREET, BAXLEY, Georgia 31513-8072","18 LUCKIE STREET, BAXLEY, Georgia 31513",31.7764907,-82.351294
"512 SOUTH MAIN STREET, HINESVILLE, Georgia 31313","512 SOUTH MAIN STREET, HINESVILLE, Georgia 31313",31.8367804,-81.5988334
"455 SOUTH MAIN STREET, HINESVILLE, Georgia 31313-4354","455 SOUTH MAIN STREET, HINESVILLE, Georgia 31313",31.8388506,-81.5983411
"303 FRASER DRIVE, HINESVILLE, Georgia 31313-3712","303 FRASER DRIVE, HINESVILLE, Georgia 31313",31.8457877,-81.5905067
"1113 EAST OGLETHORPE HIGHWAY, HINESVILLE, Georgia 31313-1200","1113 EAST OGLETHORPE HIGHWAY, HINESVILLE, Georgia 31313",31.8538986,-81.5774204
"1113 EAST OGLETHORPE HIGHWAY, HINESVILLE, Georgia 31313-1200","1113 EAST OGLETHORPE HIGHWAY, HINESVILLE, Georgia 31313",31.8538986,-81.5774204
"143 S. TALLAHASSEE STREET, HAZLEHURST, Georgia 31539","143 S. TALLAHASSEE STREET, HAZLEHURST, Georgia 31539",31.8594602,-82.6055336
"30 EAST SYCAMORE STREET, HAZLEHURST, Georgia 31539-6162","30 EAST SYCAMORE STREET, HAZLEHURST, Georgia 31539",31.866224,-82.595537
"105 MAIN STREET, GEORGETOWN, Georgia 39854-4404","105 MAIN STREET, GEORGETOWN, Georgia 39854",31.8860249,-85.1087733
"330 OLD HATLEY ROAD, CORDELE, Georgia 31015","330 OLD HATLEY ROAD, CORDELE, Georgia 31015",31.925906,-83.754277
"89 INTERCHANGE DR., RICHMOND HILL, Georgia 31324-3974","89 INTERCHANGE DR., RICHMOND HILL, Georgia 31324",31.9281704,-81.3275527
"1000 N. VETERANS BLVD, GLENNVILLE, Georgia 30427-8603","1000 N. VETERANS BLVD, GLENNVILLE, Georgia 30427",31.946105,-81.925454
"1001 SECOND AVENUE, ROCHELLE, Georgia 31079-2149","1001 SECOND AVENUE, ROCHELLE, Georgia 31079",31.949692,-83.44807
"636 2ND AVENUE SW, ROCHELLE, Georgia 31079-2046","636 2ND AVENUE SW, ROCHELLE, Georgia 31079",31.953113,-83.451111
"111 EAST 24TH AVENUE, CORDELE, Georgia 31015-3834","111 EAST 24TH AVENUE, CORDELE, Georgia 31015",31.9549728,-83.7821278
"1007 EAST 16TH AVENUE SUITE A, CORDELE, Georgia 31015","1007 EAST 16TH AVENUE SUITE A, CORDELE, Georgia 31015",31.9615406,-83.7605275
"811 NORTH 4TH STREET, CORDELE, Georgia 31015-3219","811 NORTH 4TH STREET, CORDELE, Georgia 31015",31.9764353,-83.7782162
"408 EAST 3RD AVENUE, CORDELE, Georgia 31015-3605","408 EAST 3RD AVENUE, CORDELE, Georgia 31015",31.9767428,-83.7778631
"5 MALL ANNEX, SAVANNAH, Georgia 31406","5 MALL ANNEX, SAVANNAH, Georgia 31406",32.001427,-81.102877
"400 MALL BLVD, SAVANNAH, Georgia 31406","400 MALL BLVD, SAVANNAH, Georgia 31406",32.001932,-81.1109288
"1395 EISENHOWER DRIVE, SAVANNAH, Georgia 31406-3901","1395 EISENHOWER DRIVE, SAVANNAH, Georgia 31406",32.002868,-81.0919472
"361 COMMERCIAL DR, SAVANNAH, Georgia 31406","361 COMMERCIAL DR, SAVANNAH, Georgia 31406",32.0055397,-81.1074403
"1000 TOWN CENTER BLVD, POOLER, Georgia 31322","1000 TOWN CENTER BLVD, POOLER, Georgia 31322",32.006934,-80.843415
"310 EISENHOWER DRIVE, SAVANNAH, Georgia 31406-2632","310 EISENHOWER DRIVE, SAVANNAH, Georgia 31406",32.0087259,-81.1089987
"334 STEPHENSON AVE, SAVANNAH, Georgia 31405-5929","334 STEPHENSON AVE, SAVANNAH, Georgia 31405",32.0122589,-81.1075531
"304 STEPHENSON AVENUE, SAVANNAH, Georgia 31405-6007","304 STEPHENSON AVENUE, SAVANNAH, Georgia 31405",32.0125452,-81.1085543
"1001 MEMORIAL LANE, SAVANNAH, Georgia 31410-2936","1001 MEMORIAL LANE, SAVANNAH, Georgia 31410",32.017461,-80.997043
"5353 REYNOLDS STREET, SAVANNAH, Georgia 31405","5353 REYNOLDS STREET, SAVANNAH, Georgia 31405",32.0285179,-81.0996209
"1107 EAST 66TH STREET, SAVANNAH, Georgia 31404-5701","1107 EAST 66TH STREET, SAVANNAH, Georgia 31404",32.0287476,-81.092701
"4700 WATERS AVE, SAVANNAH, Georgia 31404","4700 WATERS AVE, SAVANNAH, Georgia 31404",32.0300585,-81.0888859
"4600 WATERS AVENUE, SAVANNAH, Georgia 31404-6273","4600 WATERS AVENUE, SAVANNAH, Georgia 31404",32.032795,-81.09135
"3802 WATERS AVE, SAVANNAH, Georgia 31404","3802 WATERS AVE, SAVANNAH, Georgia 31404",32.0397998,-81.0885775
"101 LITTLE NECK ROAD, SAVANNAH, Georgia 31419-8868","101 LITTLE NECK ROAD, SAVANNAH, Georgia 31419",32.0562907,-81.300837
"1602 DRAYTON STREET, SAVANNAH, Georgia 31401-7526","1602 DRAYTON STREET, SAVANNAH, Georgia 31401",32.0604448,-81.0975348
"122 HWY 280 W, AMERICUS, Georgia 31719","122 HWY 280 W, AMERICUS, Georgia 31719",32.061328,-84.266703
"33 SOUTH SECOND AVENUE, MCRAE, Georgia 31055","33 SOUTH SECOND AVENUE, MCRAE, Georgia 31055",32.06381,-82.901047
"6814 WASHINGTON STREET, PRESTON, Georgia 31824-4032","6814 WASHINGTON STREET, PRESTON, Georgia 31824",32.0651044,-84.5377709
"89 TELFAIR AVENUE, MC RAE, Georgia 31055-2163","89 TELFAIR AVENUE, MC RAE, Georgia 31055",32.066285,-82.896411
"211 HEALTH DEPARTMENT ROAD, LUMPKIN, Georgia 31815-0000","211 HEALTH DEPARTMENT ROAD, LUMPKIN, Georgia 31815",32.069538,-84.728093
"151 GA HIGHWAY 27 E, AMERICUS, Georgia 31709-5249","151 GA HIGHWAY 27 E, AMERICUS, Georgia 31709",32.071192,-84.205035
"1035 E. FORSYTH ST, AMERICUS, Georgia 31709","1035 E. FORSYTH ST, AMERICUS, Georgia 31709",32.0716505,-84.2126028
"609 EAST LAMAR STREET, AMERICUS, Georgia 31709-3737","609 EAST LAMAR STREET, AMERICUS, Georgia 31709",32.0718196,-84.2270886
"106 EAST BROAD STREET, SAVANNAH, Georgia 31401-2917","106 EAST BROAD STREET, SAVANNAH, Georgia 31401",32.0765614,-81.0849686
"107-B FAHM STREET, SAVANNAH, Georgia 31401-2391","107-B FAHM STREET, SAVANNAH, Georgia 31401",32.078739,-81.1011784
"349 W. BRYAN ST, SAVANNAH, Georgia 31401","349 W. BRYAN ST, SAVANNAH, Georgia 31401",32.0803122,-81.0917589
"220 ALSTON STREET, RICHLAND, Georgia 31825-6012","220 ALSTON STREET, RICHLAND, Georgia 31825",32.0807012,-84.6612249
"200 B SOUTH MAIN STREET, REIDSVILLE, Georgia 30453-4602","200 B SOUTH MAIN STREET, REIDSVILLE, Georgia 30453",32.0814254,-82.1130437
"117 MEMORIAL DRIVE, REIDSVILLE, Georgia 30453-4602","117 MEMORIAL DRIVE, REIDSVILLE, Georgia 30453",32.082963,-82.1086324
"1601 N. MARTIN LUTHER KING JR. BLVD, AMERICUS, Georgia 31719-2489","1601 N. MARTIN LUTHER KING JR. BLVD, AMERICUS, Georgia 31719",32.087179,-84.240219
"123 LEARNING AVE, AMERICUS, Georgia 31719","123 LEARNING AVE, AMERICUS, Georgia 31719",32.090302,-84.310735
"2 ROBERTS STREET, GARDEN CITY, Georgia 31408-3524","2 ROBERTS STREET, GARDEN CITY, Georgia 31408",32.095058,-81.136652
"204 WEST UNION, VIENNA, Georgia 31092-1056","204 WEST UNION, VIENNA, Georgia 31092",32.096371,-83.810442
"430 LEDFORD STREET, PEMBROKE, Georgia 31321-0000","430 LEDFORD STREET, PEMBROKE, Georgia 31321",32.1316551,-81.624627
"143 CANAL STREET, POOLER, Georgia 31322-4016","143 CANAL STREET, POOLER, Georgia 31322",32.1319125,-81.2547243
"66 CAPTAIN MATTHEW FREEMAN DR., RICHMOND HILL, Georgia 31324-3652","66 CAPTAIN MATTHEW FREEMAN DR., RICHMOND HILL, Georgia 31324",32.135221,-81.502323
"3609 BILL HODGE ROAD, CLAXTON, Georgia 30417-6235","3609 BILL HODGE ROAD, CLAXTON, Georgia 30417",32.135652,-81.953059
"9 W. MAIN ST, ALAMO, Georgia 30411","9 W. MAIN ST, ALAMO, Georgia 30411",32.136106,-82.783889
"110 MEDICAL PARK DRIVE, POOLER, Georgia 31322-1956","110 MEDICAL PARK DRIVE, POOLER, Georgia 31322",32.1382078,-81.2539345
"6459 US HWY 301 S, CLAXTON, Georgia 30417","6459 US HWY 301 S, CLAXTON, Georgia 30417",32.141702,-81.903847
"414 KENT STREET, ALAMO, Georgia 30411-0000","414 KENT STREET, ALAMO, Georgia 30411",32.1486829,-82.7841664
"4 NORTH NEWTON STREET, CLAXTON, Georgia 30417-1756","4 NORTH NEWTON STREET, CLAXTON, Georgia 30417",32.1614214,-81.9051017
"218 WEST BROAD STREET, MOUNT VERNON, Georgia 30445-3021","218 WEST BROAD STREET, MOUNT VERNON, Georgia 30445",32.174714,-82.595112
"11949 US HIGHWAY 41, PINEHURST, Georgia 31070-7467","11949 US HIGHWAY 41, PINEHURST, Georgia 31070",32.175703,-83.765481
"176 FREEMAN GRAHAM BLVD, EASTMAN, Georgia 31023-0235","176 FREEMAN GRAHAM BLVD, EASTMAN, Georgia 31023",32.180837,-83.152368
"1121 PLAZA AVENUE, EASTMAN, Georgia 31023-6761","1121 PLAZA AVENUE, EASTMAN, Georgia 31023",32.1824356,-83.1787304
"901 GRIFFIN AVENUE, EASTMAN, Georgia 31023-6720","901 GRIFFIN AVENUE, EASTMAN, Georgia 31023",32.1852265,-83.1778106
"817 GRIFFIN AVE, EASTMAN, Georgia 31023-6780","817 GRIFFIN AVE, EASTMAN, Georgia 31023",32.1866404,-83.1782118
"1223 PLAZA AVE, EASTMAN, Georgia 31023-6763","1223 PLAZA AVE, EASTMAN, Georgia 31023",32.1870912,-83.1745888
"714 NW BROAD STREET, LYONS, Georgia 30436-0000","714 NW BROAD STREET, LYONS, Georgia 30436",32.2039807,-82.3424771
"303 HARRIS INDUSTRIAL BLVD SUITE 3, VIDALIA, Georgia 30474-7210","303 HARRIS INDUSTRIAL BLVD SUITE 3, VIDALIA, Georgia 30474",32.206147,-82.3780794
"125 CHURCH STREET, VIDALIA, Georgia 30474","125 CHURCH STREET, VIDALIA, Georgia 30474",32.2111067,-82.4171244
"1 MEADOWS PARKWAY, VIDALIA, Georgia 30474","1 MEADOWS PARKWAY, VIDALIA, Georgia 30474",32.217466,-82.411484
"45 WEST OGLETHORPE STREET, ELLAVILLE, Georgia 31806-3110","45 WEST OGLETHORPE STREET, ELLAVILLE, Georgia 31806",32.2437114,-84.3197081
"814 TOWNE PARK DRIVE WEST STE 100, RINCON, Georgia 31326","814 TOWNE PARK DRIVE WEST STE 100, RINCON, Georgia 31326",32.2673499,-81.2270059
"808 TOWNE PARK DRIVE, RINCON, Georgia 31326-5169","808 TOWNE PARK DRIVE, RINCON, Georgia 31326",32.2703662,-81.2226249
"259 BROAD STREET, HAWKINSVILLE, Georgia 31036","259 BROAD STREET, HAWKINSVILLE, Georgia 31036",32.2814873,-83.4815672
"81 NORTH LUMPKIN STREET, HAWKINSVILLE, Georgia 31036-4721","81 NORTH LUMPKIN STREET, HAWKINSVILLE, Georgia 31036",32.2845323,-83.4689111
"110 CHATHAM STREET, OGLETHORPE, Georgia 31068-9100","110 CHATHAM STREET, OGLETHORPE, Georgia 31068",32.2880109,-84.068167
"105 WALNUT STREET, MONTEZUMA, Georgia 31063-1902","105 WALNUT STREET, MONTEZUMA, Georgia 31063",32.2934147,-84.030898
"506-C SPAULDING ROAD, MONTEZUMA, Georgia 31063","506-C SPAULDING ROAD, MONTEZUMA, Georgia 31063",32.2956356,-84.0238151
"213 MCNAUGHTON STREET, CUSSETA, Georgia 31805-3013","213 MCNAUGHTON STREET, CUSSETA, Georgia 31805",32.3077723,-84.7649754
"111 N BAKER STREET, BUENA VISTA, Georgia 31803-1812","111 N BAKER STREET, BUENA VISTA, Georgia 31803",32.319149,-84.519876
"2839 RAILROAD AVE., CADWELL, Georgia 31009","2839 RAILROAD AVE., CADWELL, Georgia 31009",32.3390515,-83.0445207
"520 W 3RD ST, SPRINGFIELD, Georgia 31329","520 W 3RD ST, SPRINGFIELD, Georgia 31329",32.362857,-81.314411
"4357 EAST LOUISIANA AVENUE, SOPERTON, Georgia 30457-3004","4357 EAST LOUISIANA AVENUE, SOPERTON, Georgia 30457",32.3772897,-82.5888219
"5614 N THIRD STREET, SOPERTON, Georgia 30457-2009","5614 N THIRD STREET, SOPERTON, Georgia 30457",32.381655,-82.586723
"802 HIGHWAY 119 SOUTH, SPRINGFIELD, Georgia 31329-3049","802 HIGHWAY 119 SOUTH, SPRINGFIELD, Georgia 31329",32.396206,-81.288039
"152 NORTH 8TH STREET, COCHRAN, Georgia 31014-6021","152 NORTH 8TH STREET, COCHRAN, Georgia 31014",32.3979381,-83.3542819
"428 NORTH ROUNTREE STREET, METTER, Georgia 30439-0000","428 NORTH ROUNTREE STREET, METTER, Georgia 30439",32.4025391,-82.0608954
"426 GA HIGHWAY 26 E, COCHRAN, Georgia 31014","426 GA HIGHWAY 26 E, COCHRAN, Georgia 31014",32.403942,-83.333098
"1570 BRAMPTON AVENUE, STATESBORO, Georgia 30458-5102","1570 BRAMPTON AVENUE, STATESBORO, Georgia 30458",32.4062536,-81.7699798
"1230 BRAMPTON AVE, STATESBORO, Georgia 30458-0849","1230 BRAMPTON AVE, STATESBORO, Georgia 30458",32.409791,-81.7711502
"1203 BRAMPTON AVE., STATESBORO, Georgia 30458","1203 BRAMPTON AVE., STATESBORO, Georgia 30458",32.4112155,-81.7706123
"1497 FAIR RD., STATESBORO, Georgia 30458","1497 FAIR RD., STATESBORO, Georgia 30458",32.4152513,-81.7688014
"1044 BERMUDA RUN, STATESBORO, Georgia 30458","1044 BERMUDA RUN, STATESBORO, Georgia 30458",32.4168365,-81.7701446
"450 GEORGIA AVE., STATESBORO, Georgia 30458-0872","450 GEORGIA AVE., STATESBORO, Georgia 30458",32.4211267,-81.7768575
"1600 FORT BENNING ROAD, COLUMBUS, Georgia 31903","1600 FORT BENNING ROAD, COLUMBUS, Georgia 31903",32.42442,-84.939473
"23702 HIGHWAY 80 EAST, STATESBORO, Georgia 30458-0000","23702 HIGHWAY 80 EAST, STATESBORO, Georgia 30458",32.4307838,-81.7488085
"4451 COUNTRY CLUB ROAD, STATESBORO, Georgia 30458","4451 COUNTRY CLUB ROAD, STATESBORO, Georgia 30458",32.4376305,-81.814185
"3 WEST ALTMAN STREET, STATESBORO, Georgia 30458-5212","3 WEST ALTMAN STREET, STATESBORO, Georgia 30458",32.446935,-81.799598
"1 WEST ALTMAN STREET, STATESBORO, Georgia 30458-5212","1 WEST ALTMAN STREET, STATESBORO, Georgia 30458",32.4489486,-81.8005589
"1118 MORNINGSIDE DRIVE, PERRY, Georgia 31069-4948","1118 MORNINGSIDE DRIVE, PERRY, Georgia 31069",32.4596815,-83.711107
"1110 13TH STREET, COLUMBUS, Georgia 31901","1110 13TH STREET, COLUMBUS, Georgia 31901",32.470416,-84.9769917
"1336 3RD AVENUE, COLUMBUS, Georgia 31901-1531","1336 3RD AVENUE, COLUMBUS, Georgia 31901",32.4712224,-84.9888362
"OR QUOVADIS RICHARD, COLUMBUS, Georgia 31901","OR QUOVADIS RICHARD, COLUMBUS, Georgia 31901",32.472864,-84.97823
"1546 10TH AVENUE, COLUMBUS, Georgia 31904-1958","1546 10TH AVENUE, COLUMBUS, Georgia 31904",32.4763733,-84.979619
"1200 19TH STREET, COLUMBUS, Georgia 31901","1200 19TH STREET, COLUMBUS, Georgia 31901",32.480452,-84.975654
"1900 11TH AVENUE, COLUMBUS, Georgia 31901-3716","1900 11TH AVENUE, COLUMBUS, Georgia 31901",32.480654,-84.977192
"2000 10TH AVENUE, COLUMBUS, Georgia 31901","2000 10TH AVENUE, COLUMBUS, Georgia 31901",32.480922,-84.979418
"2100 COMER AVENUE, COLUMBUS, Georgia 31904-8725","2100 COMER AVENUE, COLUMBUS, Georgia 31904",32.4835754,-84.9787482
"626 23RD STREET, COLUMBUS, Georgia 31904-8829","626 23RD STREET, COLUMBUS, Georgia 31904",32.485548,-84.984056
"503 BLUEBIRD BLVD, FORT VALLEY, Georgia 31030-3097","503 BLUEBIRD BLVD, FORT VALLEY, Georgia 31030",32.487755,-83.698162
"654 COUNTY FARM RD., DUBLIN, Georgia 31021-2952","654 COUNTY FARM RD., DUBLIN, Georgia 31021",32.4953328,-82.9255766
"3702 2ND AVENUE, COLUMBUS, Georgia 31904","3702 2ND AVENUE, COLUMBUS, Georgia 31904",32.4977238,-84.9899516
"3655 GURLEY DRIVE, COLUMBUS, Georgia 31904-6861","3655 GURLEY DRIVE, COLUMBUS, Georgia 31904",32.5003874,-84.9557431
"5601 VETERANS PARKWAY, COLUMBUS, Georgia 31904","5601 VETERANS PARKWAY, COLUMBUS, Georgia 31904",32.5241342,-84.9630745
"7700 A CHATTSWORTH ROAD, MIDLAND, Georgia 31820-4022","7700 A CHATTSWORTH ROAD, MIDLAND, Georgia 31820",32.528101,-84.852802
"102 BOWLING LANE, DUBLIN, Georgia 31021-2904","102 BOWLING LANE, DUBLIN, Georgia 31021",32.5294952,-82.9489652
"2406 BELLEVUE ROAD, DUBLIN, Georgia 31021-2842","2406 BELLEVUE ROAD, DUBLIN, Georgia 31021",32.5304435,-82.9415214
"2001 BROOKSTONE CENTRE PARKWAY, COLUMBUS, Georgia 31904-4572","2001 BROOKSTONE CENTRE PARKWAY, COLUMBUS, Georgia 31904",32.532314,-84.981373
"104 FAIRVIEW PARK, DUBLIN, Georgia 31021","104 FAIRVIEW PARK, DUBLIN, Georgia 31021",32.5336453,-82.9515566
"109 ENTERPRISE COURT, COLUMBUS, Georgia 31904","109 ENTERPRISE COURT, COLUMBUS, Georgia 31904",32.5343507,-84.9634711
"112 ROWE STREET, DUBLIN, Georgia 31021","112 ROWE STREET, DUBLIN, Georgia 31021",32.5374077,-82.9093965
"500 BROOKSTONE CENTRE PARKWAY, COLUMBUS, Georgia 31904","500 BROOKSTONE CENTRE PARKWAY, COLUMBUS, Georgia 31904",32.537637,-84.9772885
"6801 RIVER ROAD, COLUMBUS, Georgia 31904","6801 RIVER ROAD, COLUMBUS, Georgia 31904",32.5401081,-84.9964087
"803 MARTIN LUTHER KING JR DRIVE, FORT VALLEY, Georgia 31030-4919","803 MARTIN LUTHER KING JR DRIVE, FORT VALLEY, Georgia 31030",32.5454426,-83.8792011
"98 COHEN WALKER DRIVE, WARNER ROBINS, Georgia 31088-2729","98 COHEN WALKER DRIVE, WARNER ROBINS, Georgia 31088",32.546452,-83.676126
"1114 GA HWY 96, KATHLEEN, Georgia 31047","1114 GA HWY 96, KATHLEEN, Georgia 31047",32.546554,-83.718066
"908 HILLCREST PARKWAY, DUBLIN, Georgia 31021-4206","908 HILLCREST PARKWAY, DUBLIN, Georgia 31021",32.5479641,-82.9280995
"2416 CAPSTONE COURT, COLUMBUS, Georgia 31909-2795","2416 CAPSTONE COURT, COLUMBUS, Georgia 31909",32.5532532,-84.954938
"7141 MOON ROAD, COLUMBUS, Georgia 31909","7141 MOON ROAD, COLUMBUS, Georgia 31909",32.5566758,-84.9278436
"80 W. MAIN STREET, BUTLER, Georgia 31006","80 W. MAIN STREET, BUTLER, Georgia 31006",32.5579755,-84.2399125
"1275 SOUTH HOUSTON LAKE ROAD, WARNER ROBINS, Georgia 31088-0745","1275 SOUTH HOUSTON LAKE ROAD, WARNER ROBINS, Georgia 31088",32.5602332,-83.6622472
"3031 WILLIAMS ROAD, COLUMBUS, Georgia 31909","3031 WILLIAMS ROAD, COLUMBUS, Georgia 31909",32.5651937,-84.9469779
"3580 MASSEE LANE, COLUMBUS, Georgia 31909","3580 MASSEE LANE, COLUMBUS, Georgia 31909",32.5676099,-84.9381422
"6084 LAKEVIEW ROAD, WARNER ROBINS, Georgia 31088-9176","6084 LAKEVIEW ROAD, WARNER ROBINS, Georgia 31088",32.5784597,-83.7050194
"50 GA HIGHWAY 56 NORTH, SWAINSBORO, Georgia 30401-4441","50 GA HIGHWAY 56 NORTH, SWAINSBORO, Georgia 30401",32.596106,-82.336412
"215 N. COLEMAN STREET, SWAINSBORO, Georgia 30401","215 N. COLEMAN STREET, SWAINSBORO, Georgia 30401",32.6015705,-82.335338
"516 S. HOUSTON LAKE ROAD, WARNER ROBINS, Georgia 31088","516 S. HOUSTON LAKE ROAD, WARNER ROBINS, Georgia 31088",32.6048331,-83.6748236
"116 SOUTH HOUSTON ROAD, WARNER ROBINS, Georgia 31088-3904","116 SOUTH HOUSTON ROAD, WARNER ROBINS, Georgia 31088",32.6171051,-83.6414545
"107 PEACOCK DRIVE, WARNER ROBINS, Georgia 31088","107 PEACOCK DRIVE, WARNER ROBINS, Georgia 31088",32.6176312,-83.6521848
"233 NORTH HOUSTON ROAD, WARNER ROBINS, Georgia 31093-3023","233 NORTH HOUSTON ROAD, WARNER ROBINS, Georgia 31093",32.6210057,-83.6416417
"233 N HOUSTON RD, WARNER ROBINS, Georgia 31093","233 N HOUSTON RD, WARNER ROBINS, Georgia 31093",32.6210057,-83.6416417
"207 GREEN STREET, WARNER ROBINS, Georgia 31093","207 GREEN STREET, WARNER ROBINS, Georgia 31093",32.628229,-83.616319
"103 MERCER DR., DUBLIN, Georgia 31021","103 MERCER DR., DUBLIN, Georgia 31021",32.640277,-83.648816
"1049 NORTH HOUSTON ROAD, WARNER ROBINS, Georgia 31093-1505","1049 NORTH HOUSTON ROAD, WARNER ROBINS, Georgia 31093",32.6447585,-83.641378
"200 HWY 49 SOUTH, BYRON, Georgia 31008-6937","200 HWY 49 SOUTH, BYRON, Georgia 31008",32.652641,-83.755205
"26 MAIN STREET, JEFFERSONVILLE, Georgia 31044-3638","26 MAIN STREET, JEFFERSONVILLE, Georgia 31044",32.6890569,-83.3442297
"101 WATSON ROAD SUITE B, JEFFERSONVILLE, Georgia 31044","101 WATSON ROAD SUITE B, JEFFERSONVILLE, Georgia 31044",32.6904799,-83.356009
"82 HILTON HOLTON STREET, WRIGHTSVILLE, Georgia 31096-5819","82 HILTON HOLTON STREET, WRIGHTSVILLE, Georgia 31096",32.691102,-82.517124
"1073 WOODLAND HIGHWAY 41, TALBOTTON, Georgia 31827-4549","1073 WOODLAND HIGHWAY 41, TALBOTTON, Georgia 31827",32.691313,-84.5429
"141 MCCRARY STREET, ROBERTA, Georgia 31078-4915","141 MCCRARY STREET, ROBERTA, Georgia 31078",32.721032,-84.00989
"2251 WEST ELM STREET, WRIGHTSVILLE, Georgia 31096","2251 WEST ELM STREET, WRIGHTSVILLE, Georgia 31096",32.728896,-82.73027
"416 PINE STREET, SYLVANIA, Georgia 30467-2036","416 PINE STREET, SYLVANIA, Georgia 30467",32.7458041,-81.6502847
"210 FORESTHILL DRIVE, HAMILTON, Georgia 31811","210 FORESTHILL DRIVE, HAMILTON, Georgia 31811",32.746007,-84.934906
"7700-B CHATTWORTH ROAD, MIDLAND, Georgia 31820-0000","7700-B CHATTWORTH ROAD, MIDLAND, Georgia 31820",32.781376,-84.825412
"709 VIRGINIA AVENUE, MILLEN, Georgia 30442-5270","709 VIRGINIA AVENUE, MILLEN, Georgia 30442",32.7966966,-81.9456775
"1075 EAST WINTHROPE AVE, MILLEN, Georgia 30442","1075 EAST WINTHROPE AVE, MILLEN, Georgia 30442",32.8042183,-81.9303595
"123 HIGH HILL STREET, IRWINTON, Georgia 31042-2611","123 HIGH HILL STREET, IRWINTON, Georgia 31042",32.8150197,-83.168313
"3780 EISENHOWER PARKWAY, MACON, Georgia 31206-0800","3780 EISENHOWER PARKWAY, MACON, Georgia 31206",32.815984,-83.7032728
"855 ANTHONY ROAD, MACON, Georgia 31204","855 ANTHONY ROAD, MACON, Georgia 31204",32.8214825,-83.6526388
"4164 RIGGINS MILL RD, MACON, Georgia 31217-5999","4164 RIGGINS MILL RD, MACON, Georgia 31217",32.8283716,-83.5610199
"844 SECOND STREET, MACON, Georgia 31201-6885","844 SECOND STREET, MACON, Georgia 31201",32.830752,-83.633774
"400 POPLAR STREET, MACON, Georgia 31201-7307","400 POPLAR STREET, MACON, Georgia 31201",32.832739,-83.627824
"1014 FORSYTH STREET, MACON, Georgia 31201-6840","1014 FORSYTH STREET, MACON, Georgia 31201",32.8353072,-83.6376541
"1600 FORSYTH ST, MACON, Georgia 31201","1600 FORSYTH ST, MACON, Georgia 31201",32.838757,-83.64557
"1508-B HARDEMAN AVE, MACON, Georgia 31201","1508-B HARDEMAN AVE, MACON, Georgia 31201",32.8396755,-83.6407256
"360 HOSPITAL DRIVE, MACON, Georgia 31217-8043","360 HOSPITAL DRIVE, MACON, Georgia 31217",32.8456864,-83.6181175
"180 EMORY HWY, MACON, Georgia 31217","180 EMORY HWY, MACON, Georgia 31217",32.848277,-83.624193
"3203 VINEVILLE AVENUE, MACON, Georgia 31204-2323","3203 VINEVILLE AVENUE, MACON, Georgia 31204",32.8525375,-83.6767264
"300 PERRY STREET, MANCHESTER, Georgia 31816-1346","300 PERRY STREET, MANCHESTER, Georgia 31816",32.8601058,-84.6075753
"3951 RIDGE AVENUE, MACON, Georgia 31210-5050","3951 RIDGE AVENUE, MACON, Georgia 31210",32.8650245,-83.6903772
"314 EAST LEE STREET, THOMASTON, Georgia 30286-4122","314 EAST LEE STREET, THOMASTON, Georgia 30286",32.8859072,-84.323116
"801 WEST GORDON STREET, THOMASTON, Georgia 30286","801 WEST GORDON STREET, THOMASTON, Georgia 30286",32.8859094,-84.3363941
"403 WEST GORDON STREET, THOMASTON, Georgia 30286-3423","403 WEST GORDON STREET, THOMASTON, Georgia 30286",32.8870854,-84.3303119
"3096 RIVERSIDE DRIVE, MACON, Georgia 31210-0420","3096 RIVERSIDE DRIVE, MACON, Georgia 31210",32.8898498,-83.676442
"210 HANNAHS MILL ROAD, THOMASTON, Georgia 30286-2801","210 HANNAHS MILL ROAD, THOMASTON, Georgia 30286",32.9024104,-84.3399911
"5300 BOWMAN ROAD, MACON, Georgia 31210","5300 BOWMAN ROAD, MACON, Georgia 31210",32.922912,-83.727767
"116 SMITH STREET, TENNILLE, Georgia 31089-1465","116 SMITH STREET, TENNILLE, Georgia 31089",32.9363973,-82.8123849
"201 MORNINGSIDE DRIVE, SANDERSVILLE, Georgia 31082-2426","201 MORNINGSIDE DRIVE, SANDERSVILLE, Georgia 31082",32.9746799,-82.8085537
"4292 GRAY HWY, GRAY, Georgia 31032","4292 GRAY HWY, GRAY, Georgia 31032",32.9854742,-83.5714704
"2501 US HIGHWAY 1 NORTH, LOUISVILLE, Georgia 30434-5213","2501 US HIGHWAY 1 NORTH, LOUISVILLE, Georgia 30434",32.986051,-82.392331
"510 WASHINGTON AVENUE, SANDERSVILLE, Georgia 31082","510 WASHINGTON AVENUE, SANDERSVILLE, Georgia 31082",32.9927739,-82.80721
"616 FERNCREST DRIVE, SANDERSVILLE, Georgia 31082","616 FERNCREST DRIVE, SANDERSVILLE, Georgia 31082",33.002056,-82.8041468
"610 FERNCREST DRIVE, SANDERSVILLE, Georgia 31082-1971","610 FERNCREST DRIVE, SANDERSVILLE, Georgia 31082",33.0020792,-82.8041401
"114 FOREST STREET, GRAY GA, Georgia 31032-5860","114 FOREST STREET, GRAY GA, Georgia 31032",33.0059191,-83.5350188
"1067 PEACHTREE STREET, LOUISVILLE, Georgia 30434-1558","1067 PEACHTREE STREET, LOUISVILLE, Georgia 30434",33.0101744,-82.4055261
"900 DALLIS STREET, LA GRANGE, Georgia 30240-4137","900 DALLIS STREET, LA GRANGE, Georgia 30240",33.015388,-85.134407
"1550 DOCTORS DRIVE, LA GRANGE, Georgia 30240-4140","1550 DOCTORS DRIVE, LA GRANGE, Georgia 30240",33.015388,-85.134407
"106 MARTIN LUTHER KING JR DR, FORSYTH, Georgia 31029-1649","106 MARTIN LUTHER KING JR DR, FORSYTH, Georgia 31029",33.0303896,-83.9467872
"MERIWETHER COUNTY HEALTH DEPT, GREENVILLE, Georgia 30222-3339","MERIWETHER COUNTY HEALTH DEPT, GREENVILLE, Georgia 30222",33.030411,-84.714165
"1527 VERNON RD, LA GRANGE, Georgia 30240-4146","1527 VERNON RD, LA GRANGE, Georgia 30240",33.032204,-85.068001
"301 MEDICAL DRIVE, LAGRANGE, Georgia 30240","301 MEDICAL DRIVE, LAGRANGE, Georgia 30240",33.0323584,-85.0592911
"100 ACADEMY DRIVE, BARNESVILLE, Georgia 30204-3504","100 ACADEMY DRIVE, BARNESVILLE, Georgia 30204",33.0341386,-84.1464627
"164 NORTH LEE STREET, FORSYTH, Georgia 31029-2122","164 NORTH LEE STREET, FORSYTH, Georgia 31029",33.0387556,-83.9383106
"120 NORTH LEE STREET, FORSYTH, Georgia 31029-1695","120 NORTH LEE STREET, FORSYTH, Georgia 31029",33.038939,-83.9410277
"101 HOUSTON STREET, BARNESVILLE, Georgia 30204-1660","101 HOUSTON STREET, BARNESVILLE, Georgia 30204",33.0512278,-84.1571141
"229 HWY 41 N, BARNESVILLE, Georgia 30204","229 HWY 41 N, BARNESVILLE, Georgia 30204",33.058025,-84.159216
"201 DOGWOOD DR., WAYNESBORO, Georgia 30830","201 DOGWOOD DR., WAYNESBORO, Georgia 30830",33.0814914,-82.0136886
"114 DOGWOOD DRIVE, WAYNESBORO, Georgia 30830-5446","114 DOGWOOD DRIVE, WAYNESBORO, Georgia 30830",33.0823437,-82.0128226
"305 JONES AVENUE, WAYNESBORO, Georgia 30830-1509","305 JONES AVENUE, WAYNESBORO, Georgia 30830",33.0827275,-82.0143837
"510 NORTH COBB ST., MILLEDGEVILLE, Georgia 31061-2365","510 NORTH COBB ST., MILLEDGEVILLE, Georgia 31061",33.0840917,-83.242016
"530 NORTH COBB STREET, MILLEDGEVILLE, Georgia 31061-7108","530 NORTH COBB STREET, MILLEDGEVILLE, Georgia 31061",33.0843017,-83.2420706
"100 N ABC STREET, MILLEDGEVILLE, Georgia 31061-9313","100 N ABC STREET, MILLEDGEVILLE, Georgia 31061",33.0863679,-83.263025
"750 NORTH COBB STREET, MILLEDGEVILLE, Georgia 31061-7162","750 NORTH COBB STREET, MILLEDGEVILLE, Georgia 31061",33.0870006,-83.2434446
"100 IRELAND DR., MILLEDGEVILLE, Georgia 31061-7937","100 IRELAND DR., MILLEDGEVILLE, Georgia 31061",33.0901411,-83.2507159
"800 NORTH GLYNN ST., MILLEDGEVILLE, Georgia 31061","800 NORTH GLYNN ST., MILLEDGEVILLE, Georgia 31061",33.0904247,-83.2543004
"7171 HWY 19, ZEBULON, Georgia 30295","7171 HWY 19, ZEBULON, Georgia 30295",33.093722,-84.345239
"104 BLUFF CHASE, BONAIRE, Georgia 31005","104 BLUFF CHASE, BONAIRE, Georgia 31005",33.096035,-83.236892
"16201 BARNESVILLE STREET, ZEBULON, Georgia 30295-3380","16201 BARNESVILLE STREET, ZEBULON, Georgia 30295",33.1019471,-84.3321407
"541 GRIFFIN STREET, ZEBULON, Georgia 30295-6750","541 GRIFFIN STREET, ZEBULON, Georgia 30295",33.1045043,-84.341631
"1015 FERNWOOD DRIVE, MILLEDGEVILLE, Georgia 31061-5416","1015 FERNWOOD DRIVE, MILLEDGEVILLE, Georgia 31061",33.1120526,-83.2537627
"14557 HIGHWAY 19, GRIFFIN, Georgia 30224","14557 HIGHWAY 19, GRIFFIN, Georgia 30224",33.180102,-84.301372
"1900 ZEBULON ROAD, GRIFFIN, Georgia 30224-5117","1900 ZEBULON ROAD, GRIFFIN, Georgia 30224",33.197121,-84.282825
"406 EAST BROAD STREET, WRENS, Georgia 30833-1113","406 EAST BROAD STREET, WRENS, Georgia 30833",33.209488,-82.377338
"400 CANTERBURY DRIVE, WRENS, Georgia 30833-4072","400 CANTERBURY DRIVE, WRENS, Georgia 30833",33.218523,-82.3729388
"658 WEST MAIN STREET, GIBSON, Georgia 30810-4013","658 WEST MAIN STREET, GIBSON, Georgia 30810",33.233365,-82.600235
"1007 MEMORIAL DRIVE, GRIFFIN, Georgia 30223-4445","1007 MEMORIAL DRIVE, GRIFFIN, Georgia 30223",33.2400517,-84.2469835
"516 BOLAND STREET, SPARTA, Georgia 31087-2045","516 BOLAND STREET, SPARTA, Georgia 31087",33.2702844,-82.9717129
"1236 FRANKLIN PARKWAY, FRANKLIN, Georgia 30217-7508","1236 FRANKLIN PARKWAY, FRANKLIN, Georgia 30217",33.271541,-85.091359
"1191 FRANKLIN PARKWAY, FRANKLIN, Georgia 30217-6551","1191 FRANKLIN PARKWAY, FRANKLIN, Georgia 30217",33.271617,-85.091384
"1661 WEST MCINTOSH ROAD, GRIFFIN, Georgia 30223","1661 WEST MCINTOSH ROAD, GRIFFIN, Georgia 30223",33.2734265,-84.2991331
"2906 FRANKLIN PARKWAY, FRANKLIN, Georgia 30217-7544","2906 FRANKLIN PARKWAY, FRANKLIN, Georgia 30217",33.280818,-85.106389
"10571 HWY 15 N, SPARTA, Georgia 31087","10571 HWY 15 N, SPARTA, Georgia 31087",33.293608,-82.96934
"463 ERNEST BILES DRIVE, JACKSON, Georgia 30233-2229","463 ERNEST BILES DRIVE, JACKSON, Georgia 30233",33.297602,-83.949599
"825 EATONTON STREET MONTICELLO, MONTICELLO, Georgia 31064-1012","825 EATONTON STREET MONTICELLO, MONTICELLO, Georgia 31064",33.2997383,-83.6749282
"48 MAIN ST., SENOIA, Georgia 30276-1895","48 MAIN ST., SENOIA, Georgia 30276",33.301341,-84.554238
"545 VENTURE CT., MONTICELLO, Georgia 31064","545 VENTURE CT., MONTICELLO, Georgia 31064",33.301806,-83.7059367
"146 SYLVAN DRIVE, JACKSON, Georgia 30233-1548","146 SYLVAN DRIVE, JACKSON, Georgia 30233",33.3035226,-83.9773047
"898 COLLEGE STREET SUITE A, MONTICELLO, Georgia 31064-1258","898 COLLEGE STREET SUITE A, MONTICELLO, Georgia 31064",33.3144326,-83.6863432
"117 PUTNAM DRIVE, EATONTON, Georgia 31024-1142","117 PUTNAM DRIVE, EATONTON, Georgia 31024",33.326853,-83.384383
"116 SPARTA HIGHWAY, EATONTON, Georgia 31024-8484","116 SPARTA HIGHWAY, EATONTON, Georgia 31024",33.332097,-83.3736663
"5040 BILL GARDNER PARKWAY, LOCUST GROVE, Georgia 30248-3645","5040 BILL GARDNER PARKWAY, LOCUST GROVE, Georgia 30248",33.3509383,-84.1421895
"3736 MIKE PADGETT HWY, AUGUSTA, Georgia 30906-0719","3736 MIKE PADGETT HWY, AUGUSTA, Georgia 30906",33.3655656,-81.9950394
"3736 MIKE PADGETT HWY, AUGUSTA, Georgia 30906","3736 MIKE PADGETT HWY, AUGUSTA, Georgia 30906",33.3655656,-81.9950394
"15A BAYNARD PARK, NEWNAN, Georgia 30265","15A BAYNARD PARK, NEWNAN, Georgia 30265",33.367878,-84.713658
"375 HWY 74 NORTH, PEACHTREE CITY, Georgia 30269-3550","375 HWY 74 NORTH, PEACHTREE CITY, Georgia 30269",33.368797,-84.575069
"1074 BEAR CREEK BLVD., HAMPTON, Georgia 30228-2962","1074 BEAR CREEK BLVD., HAMPTON, Georgia 30228",33.3810197,-84.3010656
"354 NEWNAN CROSSING BYPASS, NEWNAN, Georgia 30263","354 NEWNAN CROSSING BYPASS, NEWNAN, Georgia 30263",33.3886714,-84.7628111
"3485 MIKE PADGETT HIGHWAY, AUGUSTA, Georgia 30906-3815","3485 MIKE PADGETT HIGHWAY, AUGUSTA, Georgia 30906",33.3889727,-82.0049599
"3481 MIKE PADGETT HWY, AUGUSTA, Georgia 30906-3887","3481 MIKE PADGETT HWY, AUGUSTA, Georgia 30906",33.389241,-82.004978
"203 NEWNAN CROSSING BYPASS, NEWNAN, Georgia 30265","203 NEWNAN CROSSING BYPASS, NEWNAN, Georgia 30265",33.3927074,-84.7617704
"70 HOSPITAL ROAD, NEWNAN, Georgia 30263-1210","70 HOSPITAL ROAD, NEWNAN, Georgia 30263",33.394214,-84.813371
"105 FISCHER MARKETPLACE LN, SHARPSBURG, Georgia 30277-3680","105 FISCHER MARKETPLACE LN, SHARPSBURG, Georgia 30277",33.397063,-84.6249599
"180 A JEFFERSON PARKWAY, NEWNAN, Georgia 30263-5822","180 A JEFFERSON PARKWAY, NEWNAN, Georgia 30263",33.3973733,-84.7689008
"2420 WINDSOR SPRING ROAD, AUGUSTA, Georgia 30906-4668","2420 WINDSOR SPRING ROAD, AUGUSTA, Georgia 30906",33.3980595,-82.0530798
"189 JEFFERSON PARKWAY, NEWNAN, Georgia 30263","189 JEFFERSON PARKWAY, NEWNAN, Georgia 30263",33.39904,-84.769737
"2011 WINDSOR SPRING ROAD, AUGUSTA, Georgia 30906-4957","2011 WINDSOR SPRING ROAD, AUGUSTA, Georgia 30906",33.4101969,-82.0226758
"19 EASTBROOK BEND, PEACHTREE CITY, Georgia 30269","19 EASTBROOK BEND, PEACHTREE CITY, Georgia 30269",33.4113294,-84.5631473
"510 LEGION DRIVE, WARRENTON, Georgia 30828-8826","510 LEGION DRIVE, WARRENTON, Georgia 30828",33.4125372,-82.6515918
"4000 SHAKERAG HILL, PEACHTREE CITY, Georgia 30269-4047","4000 SHAKERAG HILL, PEACHTREE CITY, Georgia 30269",33.4145844,-84.559517
"1008 ATLANTA HWY, WARRENTON, Georgia 30828","1008 ATLANTA HWY, WARRENTON, Georgia 30828",33.415306,-82.67703
"350 HUNTINGTON PLACE CT, MC DONOUGH, Georgia 30253-2107","350 HUNTINGTON PLACE CT, MC DONOUGH, Georgia 30253",33.421223,-84.152356
"135 HENRY PARKWAY, MC DONOUGH, Georgia 30253-6636","135 HENRY PARKWAY, MC DONOUGH, Georgia 30253",33.42533,-84.148878
"130 ENTERPRISE PARKWAY, MC DONOUGH, Georgia 30253","130 ENTERPRISE PARKWAY, MC DONOUGH, Georgia 30253",33.42533,-84.148878
"2604 PEACH ORCHARD RD SUITE 200, AUGUSTA, Georgia 30906","2604 PEACH ORCHARD RD SUITE 200, AUGUSTA, Georgia 30906",33.425444,-82.018075
"1125 TOWNE CENTER VILLAGE DR., MCDONOUGH, Georgia 30253","1125 TOWNE CENTER VILLAGE DR., MCDONOUGH, Georgia 30253",33.426037,-84.174275
"2467 GOLDEN CAMP ROAD, AUGUSTA, Georgia 30906-5515","2467 GOLDEN CAMP ROAD, AUGUSTA, Georgia 30906",33.429709,-82.050291
"2201 TALMADGE RD, HAMPTON, Georgia 30228","2201 TALMADGE RD, HAMPTON, Georgia 30228",33.432012,-84.3219335
"101 REGENCY PARK DRIVE SUITE 140, MCDONOUGH, Georgia 30253","101 REGENCY PARK DRIVE SUITE 140, MCDONOUGH, Georgia 30253",33.4330695,-84.1725634
"886 HAMPTON ROAD, MCDONOUGH, Georgia 30253-6514","886 HAMPTON ROAD, MCDONOUGH, Georgia 30253",33.4338014,-84.1710278
"735 GLYNN STREET SOUTH, FAYETTEVILLE, Georgia 30214-2049","735 GLYNN STREET SOUTH, FAYETTEVILLE, Georgia 30214",33.4338125,-84.4568775
"11850 HASTINGS BRIDGE RD, HAMPTON, Georgia 30228-0000","11850 HASTINGS BRIDGE RD, HAMPTON, Georgia 30228",33.434001,-84.307052
"719 W LANIER AVE, FAYETTEVILLE, Georgia 30214","719 W LANIER AVE, FAYETTEVILLE, Georgia 30214",33.4468391,-84.4717143
"140 WEST STONEWALL AVENUE, FAYETTEVILLE, Georgia 30214-1520","140 WEST STONEWALL AVENUE, FAYETTEVILLE, Georgia 30214",33.4471687,-84.4570783
"101 YORKTOWN DRIVE, FAYETTEVILLE, Georgia 30214-1585","101 YORKTOWN DRIVE, FAYETTEVILLE, Georgia 30214",33.448917,-84.479022
"1240 HWY 54 W, FAYETTEVILLE, Georgia 30214","1240 HWY 54 W, FAYETTEVILLE, Georgia 30214",33.4510669,-84.5063802
"305 W. ROBINSON AVENUE, GROVETOWN, Georgia 30813","305 W. ROBINSON AVENUE, GROVETOWN, Georgia 30813",33.452844,-82.2048705
"105 GREENCASTLE ROAD, TYRONE, Georgia 30290-2937","105 GREENCASTLE ROAD, TYRONE, Georgia 30290",33.4541321,-84.5903996
"365 NORTH JEFF DAVIS DRIVE, FAYETTEVILLE, Georgia 30214-1627","365 NORTH JEFF DAVIS DRIVE, FAYETTEVILLE, Georgia 30214",33.4546079,-84.4500735
"5135 WRIGHTSBORO RD, GROVETOWN, Georgia 30813","5135 WRIGHTSBORO RD, GROVETOWN, Georgia 30813",33.4578204,-82.196318
"61 ROBINSON LAKE RD, NEWNAN, Georgia 30265","61 ROBINSON LAKE RD, NEWNAN, Georgia 30265",33.458373,-84.663069
"315 FLUKER STREET, THOMSON, Georgia 30824-2133","315 FLUKER STREET, THOMSON, Georgia 30824",33.4602253,-82.5052974
"950 LANEY WALKER BOULEVARD, AUGUSTA, Georgia 30901-2960","950 LANEY WALKER BOULEVARD, AUGUSTA, Georgia 30901",33.4640159,-81.9750689
"127 TELFAIR STREET, AUGUSTA, Georgia 30901","127 TELFAIR STREET, AUGUSTA, Georgia 30901",33.4669765,-81.951885
"1511 ANTHONY ROAD, AUGUSTA, Georgia 30904","1511 ANTHONY ROAD, AUGUSTA, Georgia 30904",33.4671025,-82.0192813
"1450 WINTER STREET, AUGUSTA, Georgia 30904","1450 WINTER STREET, AUGUSTA, Georgia 30904",33.4679458,-82.017945
"101 BANKS RD., FAYETTEVILLE, Georgia 30214","101 BANKS RD., FAYETTEVILLE, Georgia 30214",33.468231,-84.449526
"1238 D'ANTIGNAC STREET, AUGUSTA, Georgia 30901-2788","1238 D'ANTIGNAC STREET, AUGUSTA, Georgia 30901",33.4694909,-81.9782736
"307 GREENWAY STREET, THOMSON, Georgia 30824-2721","307 GREENWAY STREET, THOMSON, Georgia 30824",33.4695077,-82.502155
"1303 D'ANTIGNAC STREET, AUGUSTA, Georgia 30901-2749","1303 D'ANTIGNAC STREET, AUGUSTA, Georgia 30901",33.470013,-81.9792616
"1303 D ANTIGNAC STREET, AUGUSTA, Georgia 30901-2796","1303 D ANTIGNAC STREET, AUGUSTA, Georgia 30901",33.470013,-81.9792616
"1701 MAGNOLIA WAY, AUGUSTA, Georgia 30909-9484","1701 MAGNOLIA WAY, AUGUSTA, Georgia 30909",33.470303,-82.046736
"2315 CENTRAL AVENUE, AUGUSTA, Georgia 30904","2315 CENTRAL AVENUE, AUGUSTA, Georgia 30904",33.470818,-82.021386
"1447 HARPER ST 3RD FLOOR MOB, AUGUSTA, Georgia 30912","1447 HARPER ST 3RD FLOOR MOB, AUGUSTA, Georgia 30912",33.471438,-81.987173
"1120 15TH STREET-BP 1202, AUGUSTA, Georgia 30912","1120 15TH STREET-BP 1202, AUGUSTA, Georgia 30912",33.472603,-81.990145
"288 HIGHWAY 314, FAYETTEVILLE, Georgia 30214","288 HIGHWAY 314, FAYETTEVILLE, Georgia 30214",33.473675,-84.449739
"1245 AUGUSTA WEST PARKWAY, AUGUSTA, Georgia 30909-1854","1245 AUGUSTA WEST PARKWAY, AUGUSTA, Georgia 30909",33.4785925,-82.0883227
"1230 AUGUSTA WEST PARKWAY, AUGUSTA, Georgia 30909-1854","1230 AUGUSTA WEST PARKWAY, AUGUSTA, Georgia 30909",33.4799285,-82.0890679
"101 BECKETT LANE, FAYETTEVILLE, Georgia 30214-7911","101 BECKETT LANE, FAYETTEVILLE, Georgia 30214",33.480463,-84.450667
"1220 WEST WHEELER PKWY, AUGUSTA, Georgia 30909-1895","1220 WEST WHEELER PKWY, AUGUSTA, Georgia 30909",33.4808778,-82.0973619
"1215 GEORGE C WILSON DRIVE, AUGUSTA, Georgia 30909-5704","1215 GEORGE C WILSON DRIVE, AUGUSTA, Georgia 30909",33.481181,-82.087186
"1215 WEST WHEELER PARKWAY, AUGUSTA, Georgia 30909-1899","1215 WEST WHEELER PARKWAY, AUGUSTA, Georgia 30909",33.4814419,-82.0972506
"1111 GARRED BLVD SUITE A, AUGUSTA, Georgia 30909-6586","1111 GARRED BLVD SUITE A, AUGUSTA, Georgia 30909",33.483528,-82.033985
"1113 GARREDD BLVD, AUGUSTA, Georgia 30909-6674","1113 GARREDD BLVD, AUGUSTA, Georgia 30909",33.483528,-82.033985
"3675 J DEWEY GRAY CIRCLE, AUGUSTA, Georgia 30909","3675 J DEWEY GRAY CIRCLE, AUGUSTA, Georgia 30909",33.4880518,-82.0948837
"1267 INTERSTATE PARKWAY, AUGUSTA, Georgia 30909","1267 INTERSTATE PARKWAY, AUGUSTA, Georgia 30909",33.4888527,-82.0977698
"1299 INTERSTATE PARKWAY, AUGUSTA, Georgia 30909-6481","1299 INTERSTATE PARKWAY, AUGUSTA, Georgia 30909",33.4893024,-82.0916618
"210 W. CAMPGROUND RD., MCDONOUGH, Georgia 30253","210 W. CAMPGROUND RD., MCDONOUGH, Georgia 30253",33.491419,-84.167668
"1930 WILLIAM FEW PARKWAY, GROVETOWN, Georgia 30813-7802","1930 WILLIAM FEW PARKWAY, GROVETOWN, Georgia 30813",33.4931438,-82.2269184
"643 MAIN STREET, PALMETTO, Georgia 30268","643 MAIN STREET, PALMETTO, Georgia 30268",33.5026576,-84.6720856
"225 COUNTRY CLUB DR, STOCKBRIDGE, Georgia 30281","225 COUNTRY CLUB DR, STOCKBRIDGE, Georgia 30281",33.5064783,-84.2234844
"245 COUNTRY CLUB DRIVE, STOCKBRIDGE, Georgia 30281","245 COUNTRY CLUB DRIVE, STOCKBRIDGE, Georgia 30281",33.5067882,-84.2230846
"4106 COLUMBIA ROAD, MARTINEZ, Georgia 30907-1482","4106 COLUMBIA ROAD, MARTINEZ, Georgia 30907",33.508101,-82.106448
"125 EAGLES POINTE PARKWAY, STOCKBRIDGE, Georgia 30281","125 EAGLES POINTE PARKWAY, STOCKBRIDGE, Georgia 30281",33.5090791,-84.2254335
"130 EAGLE SPRINGS COURT, STOCKBRIDGE, Georgia 30281","130 EAGLE SPRINGS COURT, STOCKBRIDGE, Georgia 30281",33.509296,-84.227891
"105 OAK HILL BOULEVARD, NEWNAN, Georgia 30265","105 OAK HILL BOULEVARD, NEWNAN, Georgia 30265",33.509735,-84.425743
"110 OAK HILL BLVD, NEWNAN, Georgia 30265","110 OAK HILL BLVD, NEWNAN, Georgia 30265",33.509735,-84.425743
"1233 EAGLES LANDING PARKWAY, STOCKBRIDGE, Georgia 30281-7280","1233 EAGLES LANDING PARKWAY, STOCKBRIDGE, Georgia 30281",33.5106024,-84.2240194
"1215 EAGLES LANDING PKWY, STOCKBRIDGE, Georgia 30281-5084","1215 EAGLES LANDING PKWY, STOCKBRIDGE, Georgia 30281",33.5107015,-84.2238772
"239 VILLAGE CENTER PARKWAY STE 110, STOCKBRIDGE, Georgia 30281","239 VILLAGE CENTER PARKWAY STE 110, STOCKBRIDGE, Georgia 30281",33.5109013,-84.2229671
"1101 HOSPITAL DRIVE, STOCKBRIDGE, Georgia 30281-9076","1101 HOSPITAL DRIVE, STOCKBRIDGE, Georgia 30281",33.5115559,-84.2294666
"150 MEDICAL BOULEVARD, STOCKBRIDGE, Georgia 30281-5053","150 MEDICAL BOULEVARD, STOCKBRIDGE, Georgia 30281",33.512129,-84.2252052
"41 WELLINGTON MILL ROAD, WHITESBURG, Georgia 30185-2606","41 WELLINGTON MILL ROAD, WHITESBURG, Georgia 30185",33.5125431,-84.9154444
"193 NORTH PARK TRAIL STE 100, STOCKBRIDGE, Georgia 30281","193 NORTH PARK TRAIL STE 100, STOCKBRIDGE, Georgia 30281",33.5134997,-84.2324054
"205 CALUMET CENTER ROAD, LAGRANGE, Georgia 30241-2552","205 CALUMET CENTER ROAD, LAGRANGE, Georgia 30241",33.518087,-84.209134
"830 EAGLES LANDING PARKWAY, STOCKBRIDGE, Georgia 30281","830 EAGLES LANDING PARKWAY, STOCKBRIDGE, Georgia 30281",33.5184818,-84.1937377
"2508 UNIVERISTY DR, THOMSON, Georgia 30824","2508 UNIVERISTY DR, THOMSON, Georgia 30824",33.529506,-82.131266
"1205 TOWN PARK LANE, EVANS, Georgia 30809-3189","1205 TOWN PARK LANE, EVANS, Georgia 30809",33.5305278,-82.1327727
"4321 UNIVERSITY PARKWAY, EVANS, Georgia 30809-3093","4321 UNIVERSITY PARKWAY, EVANS, Georgia 30809",33.5308233,-82.1301753
"411 TOWN PARK BLVD, EVANS, Georgia 30809-3089","411 TOWN PARK BLVD, EVANS, Georgia 30809",33.534711,-82.115414
"1045 SOUTHCREST DRIVE, STOCKBRIDGE, Georgia 30281-6113","1045 SOUTHCREST DRIVE, STOCKBRIDGE, Georgia 30281",33.5432062,-84.2775394
"808 COMMERCE BLVD, RIVERDALE, Georgia 30296","808 COMMERCE BLVD, RIVERDALE, Georgia 30296",33.547212,-84.416678
"7138 HIGHWAY 212, COVINGTON, Georgia 30016-8047","7138 HIGHWAY 212, COVINGTON, Georgia 30016",33.54748,-84.017596
"699 FURYS FERRY ROAD, MARTINEZ, Georgia 30907-9064","699 FURYS FERRY ROAD, MARTINEZ, Georgia 30907",33.5502197,-82.0899133
"229 ADDISON SQUARE, EVANS, Georgia 30809","229 ADDISON SQUARE, EVANS, Georgia 30809",33.551132,-82.143617
"2400 MT ZION PARKWAY, JONESBORO, Georgia 30236","2400 MT ZION PARKWAY, JONESBORO, Georgia 30236",33.552517,-84.299664
"1117 BATTLE CREEK RD, JONESBORO, Georgia 30236","1117 BATTLE CREEK RD, JONESBORO, Georgia 30236",33.552574,-84.363655
"7444 HANNOVER PARKWAY S, STOCKBRIDGE, Georgia 30281-3376","7444 HANNOVER PARKWAY S, STOCKBRIDGE, Georgia 30281",33.55391,-84.273111
"109 COMMERCE STREET NW, CRAWFORDVILLE, Georgia 30631-2924","109 COMMERCE STREET NW, CRAWFORDVILLE, Georgia 30631",33.555149,-82.897246
"1004 NEWNAN ROAD, CARROLLTON, Georgia 30116-6428","1004 NEWNAN ROAD, CARROLLTON, Georgia 30116",33.5655216,-85.0449989
"107 WEDGEWOOD DRIVE, CARROLLTON, Georgia 30117","107 WEDGEWOOD DRIVE, CARROLLTON, Georgia 30117",33.5656772,-85.0768785
"803 SOUTH MAIN STREET, GREENSBORO, Georgia 30642-1211","803 SOUTH MAIN STREET, GREENSBORO, Georgia 30642",33.5678182,-83.1836363
"706 DIXIE STREET, CARROLLTON, Georgia 30117-4414","706 DIXIE STREET, CARROLLTON, Georgia 30117",33.5704135,-85.0725563
"1000 CORPORATE CENTER DRIVE, MORROW, Georgia 30260-4129","1000 CORPORATE CENTER DRIVE, MORROW, Georgia 30260",33.571211,-84.335293
"1115 MT ZION RD, MORROW, Georgia 30260","1115 MT ZION RD, MORROW, Georgia 30260",33.5716484,-84.3526701
"4910 JONESBORO ROAD, UNION CITY, Georgia 30291-2085","4910 JONESBORO ROAD, UNION CITY, Georgia 30291",33.5718718,-84.5486837
"116 UPPER RIVERDALE ROAD, RIVERDALE, Georgia 30274-2556","116 UPPER RIVERDALE ROAD, RIVERDALE, Georgia 30274",33.5742418,-84.3979124
"1031 APALACHEE AVENUE, GREENSBORO, Georgia 30642-2710","1031 APALACHEE AVENUE, GREENSBORO, Georgia 30642",33.5755541,-83.1984039
"6584 PROFESSIONAL PLACE, RIVERDALE, Georgia 30274-4922","6584 PROFESSIONAL PLACE, RIVERDALE, Georgia 30274",33.5760761,-84.3960697
"6524 OLD NATIONAL HWY, ATLANTA, Georgia 30349","6524 OLD NATIONAL HWY, ATLANTA, Georgia 30349",33.5766745,-84.4689144
"34 UPPER RIVERDALE RD, RIVERDALE, Georgia 30274","34 UPPER RIVERDALE RD, RIVERDALE, Georgia 30274",33.577063,-84.3925471
"155 MEDICAL WAY SUITE E, RIVERDALE, Georgia 30274","155 MEDICAL WAY SUITE E, RIVERDALE, Georgia 30274",33.577679,-84.3949524
"155 MEDICAL WAY, RIVERDALE, Georgia 30274","155 MEDICAL WAY, RIVERDALE, Georgia 30274",33.577679,-84.3949524
"236 ARROWHEAD BOULEVARD, JONESBORO, Georgia 30236-1106","236 ARROWHEAD BOULEVARD, JONESBORO, Georgia 30236",33.578445,-84.382933
"205 BANKHEAD HIGHWAY, CARROLLTON, Georgia 30117","205 BANKHEAD HIGHWAY, CARROLLTON, Georgia 30117",33.5810537,-85.0633143
"2005 SOUTH MAIN STREET, MADISON, Georgia 30650-2055","2005 SOUTH MAIN STREET, MADISON, Georgia 30650",33.5833263,-83.480521
"1041 PARK DRIVE, GREENSBORO, Georgia 30642-3465","1041 PARK DRIVE, GREENSBORO, Georgia 30642",33.586476,-83.469067
"4248 MT ZION ROAD, CARROLLTON, Georgia 30117","4248 MT ZION ROAD, CARROLLTON, Georgia 30117",33.588508,-85.1053718
"6015 FELDWOOD RD, ATLANTA, Georgia 30349","6015 FELDWOOD RD, ATLANTA, Georgia 30349",33.5912921,-84.516068
"15 PORTER STREET EAST, WINDER, Georgia 30680-2292","15 PORTER STREET EAST, WINDER, Georgia 30680",33.593299,-83.472889
"2020 HONEYCREEK PARKWAY SE, CONYERS, Georgia 30013-2974","2020 HONEYCREEK PARKWAY SE, CONYERS, Georgia 30013",33.598074,-84.014326
"4139 HOSPITAL DRIVE, COVINGTON, Georgia 30014","4139 HOSPITAL DRIVE, COVINGTON, Georgia 30014",33.60001,-83.849272
"8203 HAZELBRAND ROAD, COVINGTON, Georgia 30014-1510","8203 HAZELBRAND ROAD, COVINGTON, Georgia 30014",33.6002648,-83.8357676
"7143 TURNER LAKE RD., COVINGTON, Georgia 30014","7143 TURNER LAKE RD., COVINGTON, Georgia 30014",33.6020938,-83.8759025
"5211 HIGHWAY 278 NE, COVINGTON, Georgia 30014","5211 HIGHWAY 278 NE, COVINGTON, Georgia 30014",33.6023551,-83.8447887
"4152 BAKER STREET NE, COVINGTON, Georgia 30014-1404","4152 BAKER STREET NE, COVINGTON, Georgia 30014",33.6042304,-83.8531848
"1525 NORMAN DRIVE, COLLEGE PARK, Georgia 30349","1525 NORMAN DRIVE, COLLEGE PARK, Georgia 30349",33.6080727,-84.4459224
"5337 OLD NATIONAL HIGHWAY, COLLEGE PARK, Georgia 30349-3305","5337 OLD NATIONAL HIGHWAY, COLLEGE PARK, Georgia 30349",33.609827,-84.4717894
"2565 JOLLY ROAD, COLLEGE PARK, Georgia 30349-3336","2565 JOLLY ROAD, COLLEGE PARK, Georgia 30349",33.611927,-84.475123
"1720 PHOENIX BOULEVARD, COLLEGE PARK, Georgia 30349","1720 PHOENIX BOULEVARD, COLLEGE PARK, Georgia 30349",33.6143781,-84.4419965
"1561 SOUTH HIGHWAY 27 SUITE B, CARROLLTON, Georgia 30117","1561 SOUTH HIGHWAY 27 SUITE B, CARROLLTON, Georgia 30117",33.617224,-85.093397
"4945 GOVERNORS DR, FOREST PARK, Georgia 30297","4945 GOVERNORS DR, FOREST PARK, Georgia 30297",33.6184906,-84.3782477
"4905 COURTNEY DRIVE, FOREST PARK, Georgia 30297-1427","4905 COURTNEY DRIVE, FOREST PARK, Georgia 30297",33.6239288,-84.3560911
"2213 EXCHANGE PLACE, CONYERS, Georgia 30013-6723","2213 EXCHANGE PLACE, CONYERS, Georgia 30013",33.628462,-83.983483
"1920 JOHN WESLEY AVENUE, COLLEGE PARK, Georgia 30337-3606","1920 JOHN WESLEY AVENUE, COLLEGE PARK, Georgia 30337",33.6509834,-84.4516939
"1478 DOGWOOD DR. SE, CONYERS, Georgia 30013","1478 DOGWOOD DR. SE, CONYERS, Georgia 30013",33.6534174,-84.0019287
"2075 PRINCETON AVENUE, COLLEGE PARK, Georgia 30337","2075 PRINCETON AVENUE, COLLEGE PARK, Georgia 30337",33.6546915,-84.4566167
"3885 PRINCETON LAKES WAY, ATLANTA, Georgia 30331-5590","3885 PRINCETON LAKES WAY, ATLANTA, Georgia 30331",33.6587339,-84.5175106
"3896 PRINCETON LAKES WAY, ATLANTA, Georgia 30331","3896 PRINCETON LAKES WAY, ATLANTA, Georgia 30331",33.6593785,-84.5171163
"3886 PRINCETON LAKES WAY, ATLANTA, Georgia 30331-2839","3886 PRINCETON LAKES WAY, ATLANTA, Georgia 30331",33.6594195,-84.5170573
"977 TAYLOR STREET, CONYERS, Georgia 30012-5357","977 TAYLOR STREET, CONYERS, Georgia 30012",33.6646524,-84.0255217
"1506 KLONDIKE ROAD SW, CONYERS, Georgia 30094","1506 KLONDIKE ROAD SW, CONYERS, Georgia 30094",33.6646585,-84.0352194
"985 TAYLOR STREET SW, CONYERS, Georgia 30012-5357","985 TAYLOR STREET SW, CONYERS, Georgia 30012",33.665016,-84.026003
"2135 EASTVIEW PKWY, CONYERS, Georgia 30013","2135 EASTVIEW PKWY, CONYERS, Georgia 30013",33.6655005,-83.976346
"761 NORTH CHEROKEE ROAD, SOCIAL CIRCLE, Georgia 30025","761 NORTH CHEROKEE ROAD, SOCIAL CIRCLE, Georgia 30025",33.66636,-83.712187
"1096 WEST AVENUE, CONYERS, Georgia 30012","1096 WEST AVENUE, CONYERS, Georgia 30012",33.6692058,-84.022448
"1015 MILSTEAD AVENUE, CONYERS, Georgia 30012","1015 MILSTEAD AVENUE, CONYERS, Georgia 30012",33.6702881,-84.0160366
"2788 BAYARD STREET, EAST POINT, Georgia 30344-3417","2788 BAYARD STREET, EAST POINT, Georgia 30344",33.6729083,-84.4320248
"1027 BATEMAN DRIVE, SOCIAL CIRCLE, Georgia 30025","1027 BATEMAN DRIVE, SOCIAL CIRCLE, Georgia 30025",33.6767478,-83.7096778
"1277B WELLBROOK CIRCLE NE, CONYERS, Georgia 30012-3973","1277B WELLBROOK CIRCLE NE, CONYERS, Georgia 30012",33.6788874,-84.0028801
"1298 WELLBROOK CIRCLE NE, CONYERS, Georgia 30012","1298 WELLBROOK CIRCLE NE, CONYERS, Georgia 30012",33.6790391,-84.0027265
"1422 CLEVELAND AVENUE, EAST POINT, Georgia 30344-6983","1422 CLEVELAND AVENUE, EAST POINT, Georgia 30344",33.6792704,-84.4354168
"1595 WEST CLEVELAND AVE, EAST POINT, Georgia 30344","1595 WEST CLEVELAND AVE, EAST POINT, Georgia 30344",33.6799819,-84.4408139
"2739 FELTON DRIVE, EAST POINT, Georgia 30344-3603","2739 FELTON DRIVE, EAST POINT, Georgia 30344",33.6805813,-84.424336
"1513 Cleveland Ave, Atlanta, Georgia 30344","1513 Cleveland Ave, Atlanta, Georgia 30344",33.6811205,-84.3967598
"1100 CLEVELAND AVE SW, EAST POINT, Georgia 30344","1100 CLEVELAND AVE SW, EAST POINT, Georgia 30344",33.6813347,-84.4175578
"1567 MILSTEAD ROAD SUITE B, CONYERS, Georgia 30012","1567 MILSTEAD ROAD SUITE B, CONYERS, Georgia 30012",33.6813434,-83.994731
"1136 CLEVELAND AVE, EAST POINT, Georgia 30344","1136 CLEVELAND AVE, EAST POINT, Georgia 30344",33.6814095,-84.4257853
"4685 DORSETT SHOALS RD, DOUGLASVILLE, Georgia 30135","4685 DORSETT SHOALS RD, DOUGLASVILLE, Georgia 30135",33.682889,-84.733643
"2165 CHAMBERS RD, CONYERS, Georgia 30012","2165 CHAMBERS RD, CONYERS, Georgia 30012",33.686066,-84.05565
"660 MCWILIAMS RD SE, ATLANTA, Georgia 30315","660 MCWILIAMS RD SE, ATLANTA, Georgia 30315",33.688777,-84.368518
"3110 CLIFTON SPRINGS ROAD, DECATUR, Georgia 30034-4600","3110 CLIFTON SPRINGS ROAD, DECATUR, Georgia 30034",33.691079,-84.27177
"2946 CLIFTON SPRINGS ROAD, DECATUR, Georgia 30034-3820","2946 CLIFTON SPRINGS ROAD, DECATUR, Georgia 30034",33.6914921,-84.2758924
"3088 CAMPBELLTON ROAD SW, ATLANTA, Georgia 30311-5410","3088 CAMPBELLTON ROAD SW, ATLANTA, Georgia 30311",33.6936469,-84.4886121
"2025 JONESBORO RD SE, ATLANTA, Georgia 30315","2025 JONESBORO RD SE, ATLANTA, Georgia 30315",33.6980221,-84.3721164
"8011 MALL PARKWAY, LITHONIA, Georgia 30038","8011 MALL PARKWAY, LITHONIA, Georgia 30038",33.698572,-84.104539
"5424 HILLANDALE PARK CT., LITHONIA, Georgia 30058-6804","5424 HILLANDALE PARK CT., LITHONIA, Georgia 30058",33.706499,-84.133313
"5440 HILLIANDALE DR., LITHONIA, Georgia 30058","5440 HILLIANDALE DR., LITHONIA, Georgia 30058",33.706934,-84.168691
"2578 GRESHAM ROAD SE, ATLANTA, Georgia 30316-4138","2578 GRESHAM ROAD SE, ATLANTA, Georgia 30316",33.713214,-84.310388
"2505 PANOLA ROAD, LITHONIA, Georgia 30058-4831","2505 PANOLA ROAD, LITHONIA, Georgia 30058",33.715902,-84.16563
"204 ALLEN MEMORIAL DRIVE, BREMEN, Georgia 30110-2062","204 ALLEN MEMORIAL DRIVE, BREMEN, Georgia 30110",33.7159638,-85.1457904
"1009 ALABAMA AVE, BREMEN, Georgia 30110","1009 ALABAMA AVE, BREMEN, Georgia 30110",33.7162134,-85.1429299
"2491 PANOLA ROAD, LITHONIA, Georgia 30058-3802","2491 PANOLA ROAD, LITHONIA, Georgia 30058",33.71624,-84.165551
"2277 STONE MOUNTAIN LITHONIA RD, LITHONIA, Georgia 30058-5252","2277 STONE MOUNTAIN LITHONIA RD, LITHONIA, Georgia 30058",33.7231429,-84.1098336
"910 DANNON VIEW, ATLANTA, Georgia 30331","910 DANNON VIEW, ATLANTA, Georgia 30331",33.724275,-84.578581
"1175 CASCADE PARKWAY, ATLANTA, Georgia 30311","1175 CASCADE PARKWAY, ATLANTA, Georgia 30311",33.7247008,-84.5008338
"3915 CASCADE RD, ATLANTA, Georgia 30331","3915 CASCADE RD, ATLANTA, Georgia 30331",33.725742,-84.515446
"3915 CASCADE RD, ATLANTA, Georgia 30331","3915 CASCADE RD, ATLANTA, Georgia 30331",33.725742,-84.515446
"1046 RIDGE AVENUE SW, ATLANTA, Georgia 30315-1640","1046 RIDGE AVENUE SW, ATLANTA, Georgia 30315",33.7271243,-84.3918801
"6875A DOUGLAS BLVD A, DOUGLASVILLE, Georgia 30135","6875A DOUGLAS BLVD A, DOUGLASVILLE, Georgia 30135",33.7277775,-84.7578838
"212 HOSPITAL DRIVE, WASHINGTON, Georgia 30673-5619","212 HOSPITAL DRIVE, WASHINGTON, Georgia 30673",33.7280338,-82.7461608
"204 GORDON STREET, WASHINGTON, Georgia 30673-1604","204 GORDON STREET, WASHINGTON, Georgia 30673",33.7302726,-82.7466593
"6043 PRESTLEY MILL RD, DOUGLASVILLE, Georgia 30134","6043 PRESTLEY MILL RD, DOUGLASVILLE, Georgia 30134",33.7344822,-84.7191926
"868 YORK AVENUE SW, ATLANTA, Georgia 30310-2750","868 YORK AVENUE SW, ATLANTA, Georgia 30310",33.7368685,-84.4162827
"6128-D PRESTLEY MILL ROAD, DOUGLASVILLE, Georgia 30134-2273","6128-D PRESTLEY MILL ROAD, DOUGLASVILLE, Georgia 30134",33.737624,-84.730616
"545 HILL ST, ATLANTA, Georgia 30312","545 HILL ST, ATLANTA, Georgia 30312",33.738355,-84.379234
"1188 RALPH DAVID ABERNATHY BLVD, ATLANTA, Georgia 30310","1188 RALPH DAVID ABERNATHY BLVD, ATLANTA, Georgia 30310",33.7386328,-84.4270067
"6095 PROFESSIONAL PARKWAY, DOUGLASVILLE, Georgia 30134-5605","6095 PROFESSIONAL PARKWAY, DOUGLASVILLE, Georgia 30134",33.740752,-84.7307495
"490 BILL KENNEDY WAY SE, ATLANTA, Georgia 30316","490 BILL KENNEDY WAY SE, ATLANTA, Georgia 30316",33.740798,-84.358123
"6084A PROFESSIONAL PARKWAY, DOUGLASVILLE, Georgia 30134-2226","6084A PROFESSIONAL PARKWAY, DOUGLASVILLE, Georgia 30134",33.7415749,-84.7321786
"455 LEE STREET SW, ATLANTA, Georgia 30310-6949","455 LEE STREET SW, ATLANTA, Georgia 30310",33.7425876,-84.413949
"6770 SELMAN DRIVE, DOUGLASVILLE, Georgia 30134-1756","6770 SELMAN DRIVE, DOUGLASVILLE, Georgia 30134",33.7433235,-84.7511085
"626 DALLAS HIGHWAY, VILLA RICA, Georgia 30180-1209","626 DALLAS HIGHWAY, VILLA RICA, Georgia 30180",33.7444431,-84.918676
"690 DALLAS HIGHWAY STE. 206, VILLA RICA, Georgia 30180","690 DALLAS HIGHWAY STE. 206, VILLA RICA, Georgia 30180",33.7448461,-84.9183849
"4480 COVINGTON HIGHWAY, DECATUR, Georgia 30035-1218","4480 COVINGTON HIGHWAY, DECATUR, Georgia 30035",33.746555,-84.221012
"1863 MEMORIAL DRIVE, ATLANTA, Georgia 30317","1863 MEMORIAL DRIVE, ATLANTA, Georgia 30317",33.747319,-84.326538
"8503 CAMPBELLTON ST, DOUGLASVILLE, Georgia 30134-1822","8503 CAMPBELLTON ST, DOUGLASVILLE, Georgia 30134",33.7491773,-84.7460983
"424 DECATUR STREET SE, ATLANTA, Georgia 30312-1848","424 DECATUR STREET SE, ATLANTA, Georgia 30312",33.7506487,-84.3742835
"80 JESSE HILL JR DR SE, ATLANTA, Georgia 30303","80 JESSE HILL JR DR SE, ATLANTA, Georgia 30303",33.7517323,-84.3820052
"80 JESSE HILL JR. DRIVE SE, ATLANTA, Georgia 30303-3031","80 JESSE HILL JR. DRIVE SE, ATLANTA, Georgia 30303",33.7517323,-84.3820052
"3375 MEMORIAL DRIVE, DECATUR, Georgia 30032","3375 MEMORIAL DRIVE, DECATUR, Georgia 30032",33.752798,-84.270856
"1401 HOSEA WILLIAMS DRIVE SE, ATLANTA, Georgia 30317","1401 HOSEA WILLIAMS DRIVE SE, ATLANTA, Georgia 30317",33.753346,-84.341953
"35 JESSE HILL JR DRIVE SE, ATLANTA, Georgia 30303-3032","35 JESSE HILL JR DRIVE SE, ATLANTA, Georgia 30303",33.7538737,-84.3818428
"35  Jesse Hill Jr Drive, Atlanta, Georgia 30303","35  Jesse Hill Jr Drive, Atlanta, Georgia 30303",33.7538737,-84.3818428
"10 PARK PLACE SOUTH SE, ATLANTA, Georgia 30303-3030","10 PARK PLACE SOUTH SE, ATLANTA, Georgia 30303",33.754409,-84.388494
"80 JESSE HILL JR DR- GMH COMFORT, ATLANTA, Georgia 30303-3050","80 JESSE HILL JR DR- GMH COMFORT, ATLANTA, Georgia 30303",33.755325,-84.380305
"8355 CHEROKEE BLVD, DOUGLASVILLE, Georgia 30134","8355 CHEROKEE BLVD, DOUGLASVILLE, Georgia 30134",33.7568372,-84.7201765
"3780 W COUNTY LINE RD STE C, DOUGLASVILLE, Georgia 30135-1150","3780 W COUNTY LINE RD STE C, DOUGLASVILLE, Georgia 30135",33.7584596,-84.674338
"173 BOULEVARD NE, ATLANTA, Georgia 30312","173 BOULEVARD NE, ATLANTA, Georgia 30312",33.758833,-84.3719951
"186 SUNSET AVENUE NW, ATLANTA, Georgia 30314-4059","186 SUNSET AVENUE NW, ATLANTA, Georgia 30314",33.7596461,-84.4103844
"317 W. HILL ST, DECATUR, Georgia 30030","317 W. HILL ST, DECATUR, Georgia 30030",33.7597803,-84.3007851
"285 BOULEVARD NE, ATLANTA, Georgia 30312-4200","285 BOULEVARD NE, ATLANTA, Georgia 30312",33.7599326,-84.3719741
"1300 JOSEPH E. BOONE BLVD, ATLANTA, Georgia 30314-2032","1300 JOSEPH E. BOONE BLVD, ATLANTA, Georgia 30314",33.7634507,-84.43039
"1 BALTIMORE PLACE NW, ATLANTA, Georgia 30308-1400","1 BALTIMORE PLACE NW, ATLANTA, Georgia 30308",33.7685448,-84.3884406
"402 NORTH AVENUE NE, ATLANTA, Georgia 30308","402 NORTH AVENUE NE, ATLANTA, Georgia 30308",33.7712677,-84.3733668
"1571 DONALD LEE HOLLOWELL PKWY NW, ATLANTA, Georgia 30318","1571 DONALD LEE HOLLOWELL PKWY NW, ATLANTA, Georgia 30318",33.7718713,-84.4397189
"1015 DONALD LEE HOLLOWELL PKWY NW, ATLANTA, Georgia 30318-6653","1015 DONALD LEE HOLLOWELL PKWY NW, ATLANTA, Georgia 30318",33.7733025,-84.4224175
"201 W. PONCE DE LEON AVE. A, DECATUR, Georgia 30030","201 W. PONCE DE LEON AVE. A, DECATUR, Georgia 30030",33.7754871,-84.2990208
"200 E. PONCE DE LEON, DECATUR, Georgia 30030","200 E. PONCE DE LEON, DECATUR, Georgia 30030",33.775678,-84.294704
"125 CLAIREMONT AVE SUITE 190, DECATUR, Georgia 30030","125 CLAIREMONT AVE SUITE 190, DECATUR, Georgia 30030",33.7762154,-84.2964326
"ATTN: BRENDA GRANT LPN, ATLANTA, Georgia 30308-2012","ATTN: BRENDA GRANT LPN, ATLANTA, Georgia 30308",33.777229,-84.462321
"440 WINN WAY, DECATUR, Georgia 30030-1715","440 WINN WAY, DECATUR, Georgia 30030",33.7821137,-84.279397
"445 WINN WAY, DECATUR, Georgia 30030-1707","445 WINN WAY, DECATUR, Georgia 30030",33.7821137,-84.279397
"495 WINN WAY, DECATUR, Georgia 30030","495 WINN WAY, DECATUR, Georgia 30030",33.7821137,-84.279397
"705 BREEDLOVE DRIVE SUITE 100, MONROE, Georgia 30655","705 BREEDLOVE DRIVE SUITE 100, MONROE, Georgia 30655",33.7829079,-83.7195988
"333 ALCOVY STREET, MONROE, Georgia 30655-2180","333 ALCOVY STREET, MONROE, Georgia 30655",33.7830967,-83.716491
"655 ETHEL ST NW, ATLANTA, Georgia 30318","655 ETHEL ST NW, ATLANTA, Georgia 30318",33.7847042,-84.4081787
"350 WINN WAY, DECATUR, Georgia 30030-5406","350 WINN WAY, DECATUR, Georgia 30030",33.7847621,-84.2794335
"1404 SOUTH MADISON AVENUE, MONROE, Georgia 30655-2816","1404 SOUTH MADISON AVENUE, MONROE, Georgia 30655",33.7848769,-83.7051738
"311 ALCOVY STREET, MONROE, Georgia 30655-8211","311 ALCOVY STREET, MONROE, Georgia 30655",33.7858817,-83.7158278
"1247 DONALD LEE HOLLOWELL PARKWAY, ATLANTA, Georgia 30318","1247 DONALD LEE HOLLOWELL PARKWAY, ATLANTA, Georgia 30318",33.7871018,-84.4936006
"428 WINN CIRCLE, DECATUR, Georgia 30030","428 WINN CIRCLE, DECATUR, Georgia 30030",33.788721,-84.277678
"1310 ROCKBRIDGE ROAD, STONE MOUNTAIN, Georgia 30087","1310 ROCKBRIDGE ROAD, STONE MOUNTAIN, Georgia 30087",33.7889835,-84.1688979
"4958 MEMORIAL DRIVE, STONE MOUNTAIN, Georgia 30083-4148","4958 MEMORIAL DRIVE, STONE MOUNTAIN, Georgia 30083",33.790313,-84.230261
"1405 Clifton Road NE, Atlanta, Georgia 30322","1405 Clifton Road NE, Atlanta, Georgia 30322",33.7935655,-84.3198589
"1405 CLIFTON RD NE, ATLANTA, Georgia 30322","1405 CLIFTON RD NE, ATLANTA, Georgia 30322",33.7935655,-84.3198589
"2161 WEST SPRING STREET, MONROE, Georgia 30655","2161 WEST SPRING STREET, MONROE, Georgia 30655",33.7937403,-83.7276158
"512 GREAT OAKS DRIVE, MONROE, Georgia 30655-2090","512 GREAT OAKS DRIVE, MONROE, Georgia 30655",33.794333,-83.712226
"133 BUCHANAN BYPASS, BUCHANAN, Georgia 30113-4928","133 BUCHANAN BYPASS, BUCHANAN, Georgia 30113",33.7952728,-85.1802842
"176 NORTH PEACHTREE STREET, LINCOLNTON, Georgia 30817-5871","176 NORTH PEACHTREE STREET, LINCOLNTON, Georgia 30817",33.795998,-82.477699
"5405 MEMORIAL DRIVE, STONE MOUNTAIN, Georgia 30083-3236","5405 MEMORIAL DRIVE, STONE MOUNTAIN, Georgia 30083",33.799516,-84.217702
"611 WASHINGTON STREET, LINCOLNTON, Georgia 30817","611 WASHINGTON STREET, LINCOLNTON, Georgia 30817",33.7998678,-82.4783288
"3700 MLK JR. DR, ATLANTA, Georgia 30331-3674","3700 MLK JR. DR, ATLANTA, Georgia 30331",33.800226,-84.398497
"3700 MLK JR. DR., ATLANTA, Georgia 30331","3700 MLK JR. DR., ATLANTA, Georgia 30331",33.800226,-84.398497
"915 THORNTON ROAD, LITHIA SPRINGS, Georgia 30122-2634","915 THORNTON ROAD, LITHIA SPRINGS, Georgia 30122",33.8006428,-84.6497565
"5582 MEMORIAL DRIVE, STONE MOUNTAIN, Georgia 30083-3380","5582 MEMORIAL DRIVE, STONE MOUNTAIN, Georgia 30083",33.800732,-84.209986
"5674 MEMORIAL DRIVE, STONE MOUNTAIN, Georgia 30083","5674 MEMORIAL DRIVE, STONE MOUNTAIN, Georgia 30083",33.801233,-84.206036
"8277 CONNALLY DRIVE, DOUGLASVILLES, Georgia 30134","8277 CONNALLY DRIVE, DOUGLASVILLES, Georgia 30134",33.80225,-84.691034
"1800 HOWELL MILL RD, ATLANTA, Georgia 30318-2538","1800 HOWELL MILL RD, ATLANTA, Georgia 30318",33.804006,-84.413933
"1799 BRIARCLIFF ROAD NE, ATLANTA, Georgia 30306-2142","1799 BRIARCLIFF ROAD NE, ATLANTA, Georgia 30306",33.8040753,-84.3374369
"4112 EAST PONCE DE LEON AVENUE, CLARKSTON, Georgia 30021-1898","4112 EAST PONCE DE LEON AVENUE, CLARKSTON, Georgia 30021",33.8073465,-84.241492
"980 ROWLAND ST., CLARKSTON, Georgia 30021","980 ROWLAND ST., CLARKSTON, Georgia 30021",33.8075947,-84.2399095
"3660 MARKET STREET, CLARKSTON, Georgia 30021","3660 MARKET STREET, CLARKSTON, Georgia 30021",33.8099778,-84.2403342
"3700 MARKET STREET, CLARKSTON, Georgia 30021-2652","3700 MARKET STREET, CLARKSTON, Georgia 30021",33.8101855,-84.2384779
"2403 LAWRENCEVILLE HWY, DECATUR, Georgia 30033-6904","2403 LAWRENCEVILLE HWY, DECATUR, Georgia 30033",33.817112,-84.267962
"2240 WEST PARK PLACE BLVD., STONE MOUNTAIN, Georgia 30087-3543","2240 WEST PARK PLACE BLVD., STONE MOUNTAIN, Georgia 30087",33.817269,-84.118378
"96 TARA COMMONS DRIVE, LOGANVILLE, Georgia 30052-3928","96 TARA COMMONS DRIVE, LOGANVILLE, Georgia 30052",33.8205115,-83.8759257
"80 PARKER DRIVE, MONROE, Georgia 30656","80 PARKER DRIVE, MONROE, Georgia 30656",33.822008,-83.727626
"1438 MCLENDON DRIVE, DECATUR, Georgia 30033-1802","1438 MCLENDON DRIVE, DECATUR, Georgia 30033",33.822404,-84.261487
"4579 S COBB DR SE, SMYRNA, Georgia 30080","4579 S COBB DR SE, SMYRNA, Georgia 30080",33.822651,-84.48646
"4581 SOUTH COBB DRIVE SE, SMYRNA, Georgia 30080","4581 SOUTH COBB DRIVE SE, SMYRNA, Georgia 30080",33.822651,-84.48646
"3875 AUSTELL ROAD, AUSTELL, Georgia 30106-1153","3875 AUSTELL ROAD, AUSTELL, Georgia 30106",33.824035,-84.6163165
"2680 LAWRENCEVILLE HWY SUITE 100, DECATUR, Georgia 30033","2680 LAWRENCEVILLE HWY SUITE 100, DECATUR, Georgia 30033",33.824324,-84.260239
"1390 MONTREAL ROAD, TUCKER, Georgia 30084-8187","1390 MONTREAL ROAD, TUCKER, Georgia 30084",33.8258314,-84.250342
"2785 LAWRENCEVILLE HWY, DECATUR, Georgia 30033-2515","2785 LAWRENCEVILLE HWY, DECATUR, Georgia 30033",33.825846,-84.256242
"3200 HIGHLANDS PARKWAY, SMYRNA, Georgia 30082","3200 HIGHLANDS PARKWAY, SMYRNA, Georgia 30082",33.827315,-84.497163
"3200 HIGHLAND PKWY, SMYRNA, Georgia 30082","3200 HIGHLAND PKWY, SMYRNA, Georgia 30082",33.827491,-84.497101
"2174 NORTH DRUID HILLS ROAD NE, ATLANTA, Georgia 30329","2174 NORTH DRUID HILLS ROAD NE, ATLANTA, Georgia 30329",33.827572,-84.329687
"2695 BUFORD HWY NE, ATLANTA, Georgia 30324","2695 BUFORD HWY NE, ATLANTA, Georgia 30324",33.827978,-84.346636
"3644 HIGHLANDS PARKWAY, SMYRNA, Georgia 30082","3644 HIGHLANDS PARKWAY, SMYRNA, Georgia 30082",33.8281393,-84.5018234
"3435 HWY 81, LOGANVILLE, Georgia 30052","3435 HWY 81, LOGANVILLE, Georgia 30052",33.8333393,-83.8849454
"4495 ATLANTA HWY, LOGANVILLE, Georgia 30052","4495 ATLANTA HWY, LOGANVILLE, Georgia 30052",33.8364489,-83.8984519
"3672 MARATHON CIRCLE, AUSTELL, Georgia 30106","3672 MARATHON CIRCLE, AUSTELL, Georgia 30106",33.836897,-84.630729
"200 CRESCENT CENTRE PARKWAY, TUCKER, Georgia 30084","200 CRESCENT CENTRE PARKWAY, TUCKER, Georgia 30084",33.838175,-84.247292
"1918 NORTHLAKE PARKWAY SUITE 201, TUCKER, Georgia 30084","1918 NORTHLAKE PARKWAY SUITE 201, TUCKER, Georgia 30084",33.8386214,-84.2393836
"4385 PECAN STREET, LOGANVILLE, Georgia 30052","4385 PECAN STREET, LOGANVILLE, Georgia 30052",33.8403215,-83.9011743
"4593 LAWRENCEVILLE RD, LOGANVILLE, Georgia 30052","4593 LAWRENCEVILLE RD, LOGANVILLE, Georgia 30052",33.8418992,-83.8961848
"3193 HOWELL MILL ROAD NW, ATLANTA, Georgia 30327","3193 HOWELL MILL ROAD NW, ATLANTA, Georgia 30327",33.8419205,-84.4264384
"115 LEE BYRD ROAD, LOGANVILLE, Georgia 30052","115 LEE BYRD ROAD, LOGANVILLE, Georgia 30052",33.8423926,-83.8882344
"2007 MONTREAL, TUCKER, Georgia 30084-5253","2007 MONTREAL, TUCKER, Georgia 30084",33.8425039,-84.2566421
"2012 HAROBI DRIVE, TUCKER, Georgia 30084-5161","2012 HAROBI DRIVE, TUCKER, Georgia 30084",33.843649,-84.260667
"2840 N. E. EXPRESSWAY, ATLANTA, Georgia 30345","2840 N. E. EXPRESSWAY, ATLANTA, Georgia 30345",33.845603,-84.281422
"1875 CENTURY BLVD NE, ATLANTA, Georgia 30345-3323","1875 CENTURY BLVD NE, ATLANTA, Georgia 30345",33.845845,-84.312456
"1305 JENNINGS MILL ROAD, WATKINSVILLE, Georgia 30677","1305 JENNINGS MILL ROAD, WATKINSVILLE, Georgia 30677",33.846598,-83.322313
"1305 JENNINGS MILL ROAD STE 230, WATKINSVILLE, Georgia 30677","1305 JENNINGS MILL ROAD STE 230, WATKINSVILLE, Georgia 30677",33.846598,-83.322313
"2227 IDLEWOOD RD, TUCKER, Georgia 30084","2227 IDLEWOOD RD, TUCKER, Georgia 30084",33.8498726,-84.2131596
"2244 HENDERSON MILL ROAD, ATLANTA, Georgia 30345","2244 HENDERSON MILL ROAD, ATLANTA, Georgia 30345",33.8500195,-84.2583917
"3815 HARRISON RD., LOGANVILLIE, Georgia 30052-2462","3815 HARRISON RD., LOGANVILLIE, Georgia 30052",33.850698,-83.924252
"2258 NORTHLAKE PARKWAY, TUCKER, Georgia 30084","2258 NORTHLAKE PARKWAY, TUCKER, Georgia 30084",33.851,-84.2453996
"2295 PARKLAKE DRIVE, ATLANTA, Georgia 30345","2295 PARKLAKE DRIVE, ATLANTA, Georgia 30345",33.852372,-84.248941
"3610 PIEDMONT ROAD NE, ATLANTA, Georgia 30305","3610 PIEDMONT ROAD NE, ATLANTA, Georgia 30305",33.8531126,-84.3817317
"2800 MAIN STREET WEST, SNELLVILLE, Georgia 30078-3157","2800 MAIN STREET WEST, SNELLVILLE, Georgia 30078",33.8545373,-84.0299148
"2311 HENRY CLOWER BLVD, SNELLVILLE, Georgia 30078-6106","2311 HENRY CLOWER BLVD, SNELLVILLE, Georgia 30078",33.8552674,-84.0151726
"2321 HENRY CLOWER BLVD SUITE A, SNELLVILLE, Georgia 30078-7419","2321 HENRY CLOWER BLVD SUITE A, SNELLVILLE, Georgia 30078",33.8552674,-84.0151726
"2240 FOUNTAIN DRIVE, SNELLVILLE, Georgia 30078","2240 FOUNTAIN DRIVE, SNELLVILLE, Georgia 30078",33.8558789,-84.0286949
"4039 ATLANTA STREET, POWDER SPRINGS, Georgia 30127-8665","4039 ATLANTA STREET, POWDER SPRINGS, Georgia 30127",33.8572614,-84.6728435
"1810 MULKEY RD SUITE 201, AUSTELL, Georgia 30106","1810 MULKEY RD SUITE 201, AUSTELL, Georgia 30106",33.858845,-84.604223
"1810 MULKEY ROAD STE 105, AUSTELL, Georgia 30106-1132","1810 MULKEY ROAD STE 105, AUSTELL, Georgia 30106",33.858845,-84.604223
"3807 CLAIRMONT ROAD NE, CHAMBLEE, Georgia 30341-4911","3807 CLAIRMONT ROAD NE, CHAMBLEE, Georgia 30341",33.8616959,-84.3096826
"1020 JAMESTOWN BLVD, WATKINSVILLE, Georgia 30677","1020 JAMESTOWN BLVD, WATKINSVILLE, Georgia 30677",33.8629,-83.40877
"3640 TRAMORE POINTE PKWY. SW, AUSTELL, Georgia 30106","3640 TRAMORE POINTE PKWY. SW, AUSTELL, Georgia 30106",33.864222,-84.622683
"4166 BUFORD HWY NE, CHAMBLEE, Georgia 30345","4166 BUFORD HWY NE, CHAMBLEE, Georgia 30345",33.864612,-84.304883
"4120 FIVE FORKS TRICKUM ROAD, LILBURN, Georgia 30047","4120 FIVE FORKS TRICKUM ROAD, LILBURN, Georgia 30047",33.8665181,-84.0940668
"2849 HENDERSON MILL ROAD, ATLANTA, Georgia 30341","2849 HENDERSON MILL ROAD, ATLANTA, Georgia 30341",33.868133,-84.250473
"1060 EXPERIMENT STATION ROAD, WATKINSVILLE, Georgia 30677-5323","1060 EXPERIMENT STATION ROAD, WATKINSVILLE, Georgia 30677",33.8681387,-83.4170275
"562 CONCORD RD SE, SMYRNA, Georgia 30082","562 CONCORD RD SE, SMYRNA, Georgia 30082",33.8683564,-84.5378462
"582 CONCORD RD SE, SMYRNA, Georgia 30082","582 CONCORD RD SE, SMYRNA, Georgia 30082",33.868374,-84.5378326
"705 TOWN BLVD., BROOKHAVEN, Georgia 30319","705 TOWN BLVD., BROOKHAVEN, Georgia 30319",33.8697321,-84.3363748
"305 UNION POINT ROAD, LEXINGTON, Georgia 30648-2304","305 UNION POINT ROAD, LEXINGTON, Georgia 30648",33.8704706,-83.1193232
"247 UNION POINT STREET, LEXINGTON, Georgia 30648-2303","247 UNION POINT STREET, LEXINGTON, Georgia 30648",33.870754,-83.11828
"4441 ATLANTA ROAD SUITE 201, SMYRNA, Georgia 30080","4441 ATLANTA ROAD SUITE 201, SMYRNA, Georgia 30080",33.8738678,-84.5007134
"3100 FIVE FORKS TRICKUM RD. SW, LILBURN, Georgia 30047-1887","3100 FIVE FORKS TRICKUM RD. SW, LILBURN, Georgia 30047",33.875521,-84.074719
"3020 MERCER UNIVERSITY DR SUITE 100, ATLANTA, Georgia 30341","3020 MERCER UNIVERSITY DR SUITE 100, ATLANTA, Georgia 30341",33.8766,-84.265339
"1700 TREE LANE, SNELLVILLE, Georgia 30078-6749","1700 TREE LANE, SNELLVILLE, Georgia 30078",33.8767559,-84.0226258
"2525 CUMBERLAND PKWY SE, ATLANTA, Georgia 30339","2525 CUMBERLAND PKWY SE, ATLANTA, Georgia 30339",33.878855,-84.471576
"297 COOPER RD, LOGANVILLE, Georgia 30052","297 COOPER RD, LOGANVILLE, Georgia 30052",33.879292,-83.942982
"1800 HOG MOUNTAIN ROAD BLDG 200-101, WATKINSVILLE, Georgia 30677","1800 HOG MOUNTAIN ROAD BLDG 200-101, WATKINSVILLE, Georgia 30677",33.879802,-83.433261
"3182 SHALLOWFORD ROAD, CHAMBLEE, Georgia 30341","3182 SHALLOWFORD ROAD, CHAMBLEE, Georgia 30341",33.8806325,-84.2866039
"3001 SOUTH COBB DR., SMYRNA, Georgia 30080","3001 SOUTH COBB DR., SMYRNA, Georgia 30080",33.8806684,-84.5327566
"3065 SOUTH COBB DRIVE, SMYRNA, Georgia 30080-7809","3065 SOUTH COBB DRIVE, SMYRNA, Georgia 30080",33.8809428,-84.5332292
"3646-D CHAMBLEE TUCKER ROAD, CHAMBLEE, Georgia 30341-4406","3646-D CHAMBLEE TUCKER ROAD, CHAMBLEE, Georgia 30341",33.8826989,-84.2803369
"6000 LAKE FORREST DRIVE NW, ATLANTA, Georgia 30328","6000 LAKE FORREST DRIVE NW, ATLANTA, Georgia 30328",33.8855705,-84.3922862
"6100 LAKE FORREST DR NW, SANDY SPRINGS, Georgia 30328-4733","6100 LAKE FORREST DR NW, SANDY SPRINGS, Georgia 30328",33.8855705,-84.3922862
"5134 PEACHTREE ROAD, CHAMBLEE, Georgia 30341","5134 PEACHTREE ROAD, CHAMBLEE, Georgia 30341",33.8865442,-84.3100054
"4961 BUFORD HWY NE, CHAMBLEE, Georgia 30341","4961 BUFORD HWY NE, CHAMBLEE, Georgia 30341",33.887286,-84.287414
"4961 BUFORD HIGHWAY, CHAMBLEE, Georgia 30341","4961 BUFORD HIGHWAY, CHAMBLEE, Georgia 30341",33.8872877,-84.2872341
"3337 CHAMBLE-DUNWOODY ROAD, CHAMBLEE, Georgia 30341-2120","3337 CHAMBLE-DUNWOODY ROAD, CHAMBLEE, Georgia 30341",33.891883,-84.295414
"127 ENTERPRISE PATH, HIRAM, Georgia 30141","127 ENTERPRISE PATH, HIRAM, Georgia 30141",33.8932089,-84.7649048
"5150 BUFORD HIGHWAY, DORAVILLE, Georgia 30340-1172","5150 BUFORD HIGHWAY, DORAVILLE, Georgia 30340",33.8935083,-84.28432
"3630 SHALLOWFORD RD., DORAVILLE, Georgia 30340","3630 SHALLOWFORD RD., DORAVILLE, Georgia 30340",33.89569,-84.28538
"3576 SHALLOWFORD ROAD NE, CHAMBLEE, Georgia 30341-2998","3576 SHALLOWFORD ROAD NE, CHAMBLEE, Georgia 30341",33.8957642,-84.2843346
"6131 S NORCROSS TUCKER RD SUITE 6, NORCROSS, Georgia 30093","6131 S NORCROSS TUCKER RD SUITE 6, NORCROSS, Georgia 30093",33.8965522,-84.2096722
"101 KIDS PEACE DRIVE, BOWDON, Georgia 30108-3447","101 KIDS PEACE DRIVE, BOWDON, Georgia 30108",33.896704,-84.757502
"2520 WINDY HILL RD, MARIETTA, Georgia 30067-8633","2520 WINDY HILL RD, MARIETTA, Georgia 30067",33.8999987,-84.49291
"1060 WINDY HILL ROAD, SMYRNA, Georgia 30080","1060 WINDY HILL ROAD, SMYRNA, Georgia 30080",33.9011705,-84.4906411
"51 HIRAM DRIVE, HIRAM, Georgia 30141-1844","51 HIRAM DRIVE, HIRAM, Georgia 30141",33.9036273,-84.774025
"4025 LAWRENCEVILLE HWY NW, LILBURN, Georgia 30047-2876","4025 LAWRENCEVILLE HWY NW, LILBURN, Georgia 30047",33.903955,-84.115499
"4025 LAWRENCEVILLE HIGHWAY, LILBURN, Georgia 30047-2819","4025 LAWRENCEVILLE HIGHWAY, LILBURN, Georgia 30047",33.9039665,-84.114286
"5345 JIMMY CARTER BLVD, NORCROSS, Georgia 30093","5345 JIMMY CARTER BLVD, NORCROSS, Georgia 30093",33.9040967,-84.2051746
"7869 VILLA RICA HWY, DALLAS, Georgia 30157","7869 VILLA RICA HWY, DALLAS, Georgia 30157",33.9048696,-84.8267993
"5445 MERIDIAN MARK ROAD, ATLANTA, Georgia 30342-4755","5445 MERIDIAN MARK ROAD, ATLANTA, Georgia 30342",33.905754,-84.354622
"325 LESTER RD NW SUITE C, LAWRENCEVILLE, Georgia 30044","325 LESTER RD NW SUITE C, LAWRENCEVILLE, Georgia 30044",33.905768,-84.109298
"6010 SINGLETON ROAD, NORCROSS, Georgia 30093-1963","6010 SINGLETON ROAD, NORCROSS, Georgia 30093",33.906037,-84.198408
"639 BEAVER RUIN RD NW SUITE A, LILBURN, Georgia 30047","639 BEAVER RUIN RD NW SUITE A, LILBURN, Georgia 30047",33.906101,-84.125324
"449 PLEASANT HILL ROAD STE 104, LILBURN, Georgia 30047","449 PLEASANT HILL ROAD STE 104, LILBURN, Georgia 30047",33.9070772,-84.1111851
"1001 Johnson Ferry Rd., Atlanta, Georgia 30342","1001 Johnson Ferry Rd., Atlanta, Georgia 30342",33.907802,-84.354941
"605 BEAVER RUIN ROAD, LILBURN, Georgia 30047-3102","605 BEAVER RUIN ROAD, LILBURN, Georgia 30047",33.908198,-84.1265728
"451 JIMMY CAMPBELL PARKWAY, DALLAS, Georgia 30132-5500","451 JIMMY CAMPBELL PARKWAY, DALLAS, Georgia 30132",33.9085516,-84.8261147
"645 BEAVER RUIN ROAD, LILBURN, Georgia 30047-3401","645 BEAVER RUIN ROAD, LILBURN, Georgia 30047",33.9089627,-84.1277487
"1100 LAKE HEARN DRIVE NE, SANDY SPRINGS, Georgia 30342","1100 LAKE HEARN DRIVE NE, SANDY SPRINGS, Georgia 30342",33.912611,-84.3502543
"1650 COUNTY SERVICES PARKWAY SW, MARIETTA, Georgia 30008-4010","1650 COUNTY SERVICES PARKWAY SW, MARIETTA, Georgia 30008",33.912711,-84.581988
"4608 JIMMY CARTER BLVD, NORCROSS, Georgia 30093-3740","4608 JIMMY CARTER BLVD, NORCROSS, Georgia 30093",33.9127218,-84.208001
"5127 JIMMY CARTER BLVD, NORCROSS, Georgia 30093-1638","5127 JIMMY CARTER BLVD, NORCROSS, Georgia 30093",33.9127218,-84.208001
"1605 ROBERTA DRIVE SW, MARIETTA, Georgia 30008","1605 ROBERTA DRIVE SW, MARIETTA, Georgia 30008",33.9140438,-84.5568921
"275 CARPENTER DRIVE NE STE. 100, ATLANTA, Georgia 30328-4909","275 CARPENTER DRIVE NE STE. 100, ATLANTA, Georgia 30328",33.9150589,-84.3779439
"5920 SANDY SPRINGS CIRCLE, SANDY SPRINGS, Georgia 30328","5920 SANDY SPRINGS CIRCLE, SANDY SPRINGS, Georgia 30328",33.9168339,-84.3861807
"5030 GEORGIA BELLE COURT, NORCROSS, Georgia 30093-2667","5030 GEORGIA BELLE COURT, NORCROSS, Georgia 30093",33.9177172,-84.1639335
"1405 FRANKLIN ROAD SE, MARIETTA, Georgia 30067-8721","1405 FRANKLIN ROAD SE, MARIETTA, Georgia 30067",33.9182979,-84.493728
"5300 OAKBROOK PARKWY., NORCROSS, Georgia 30093-2667","5300 OAKBROOK PARKWY., NORCROSS, Georgia 30093",33.919615,-84.180859
"3560 SUGARLOAF PARKWAY, LAWRENCEVILLE, Georgia 30044","3560 SUGARLOAF PARKWAY, LAWRENCEVILLE, Georgia 30044",33.9204737,-84.0095496
"6095 BARFIELD RD, SANDY SPRINGS, Georgia 30328-5338","6095 BARFIELD RD, SANDY SPRINGS, Georgia 30328",33.922414,-84.3597937
"11 DUNWOODY PARK STE 190, DUNWOODY, Georgia 30338-7408","11 DUNWOODY PARK STE 190, DUNWOODY, Georgia 30338",33.9247834,-84.3109104
"2713 MARIETTA HIGHWAY, DALLAS, Georgia 30157-9470","2713 MARIETTA HIGHWAY, DALLAS, Georgia 30157",33.92745,-84.745069
"3525 SUGARLOAF PARKWAY, LAWRENCEVILLE, Georgia 30044-5403","3525 SUGARLOAF PARKWAY, LAWRENCEVILLE, Georgia 30044",33.927763,-84.0173781
"1235 INDIAN TRAIL LILBURN ROAD STE, NORCROSS, Georgia 30093","1235 INDIAN TRAIL LILBURN ROAD STE, NORCROSS, Georgia 30093",33.9283286,-84.1761075
"870 GAINES SCHOOL RD, ATHENS, Georgia 30605","870 GAINES SCHOOL RD, ATHENS, Georgia 30605",33.9292989,-83.3328578
"4121 STEVE REYNOLDS BLVD, NORCROSS, Georgia 30093-4502","4121 STEVE REYNOLDS BLVD, NORCROSS, Georgia 30093",33.929466,-84.147192
"3985 STEVE REYNOLDS BLVD., NORCROSS, Georgia 30093-3035","3985 STEVE REYNOLDS BLVD., NORCROSS, Georgia 30093",33.929766,-84.146964
"1061 DOWDY ROAD SUITE 101, ATHENS, Georgia 30606","1061 DOWDY ROAD SUITE 101, ATHENS, Georgia 30606",33.9320574,-83.4607216
"6185 BUFORD HWY BUILDING B, NORCROSS, Georgia 30071","6185 BUFORD HWY BUILDING B, NORCROSS, Georgia 30071",33.9334385,-84.2185663
"3305 SUGARLOAF PARKWAY, LAWRENCEVILLE, Georgia 30044","3305 SUGARLOAF PARKWAY, LAWRENCEVILLE, Georgia 30044",33.9337762,-84.0289084
"3911 MARY ELIZA TRACE NW, MARIETTA, Georgia 30064","3911 MARY ELIZA TRACE NW, MARIETTA, Georgia 30064",33.934646,-84.613709
"777 FRANKLIN GATEWAY SE, MARIETTA, Georgia 30067","777 FRANKLIN GATEWAY SE, MARIETTA, Georgia 30067",33.9347979,-84.5031589
"5949 BUFORD HWY, NOCROSS, Georgia 30071-2472","5949 BUFORD HWY, NOCROSS, Georgia 30071",33.934951,-84.215903
"2775 CRUSE ROAD, LAWRENCEVILLE, Georgia 30044-7146","2775 CRUSE ROAD, LAWRENCEVILLE, Georgia 30044",33.938069,-84.085567
"3685 LAWRENCEVILLE HWY STE 100, LAWRENCEVILLE, Georgia 30044","3685 LAWRENCEVILLE HWY STE 100, LAWRENCEVILLE, Georgia 30044",33.9382886,-84.0272988
"455 GRAYSON HIGHWAY, LAWRENCEVILLE, Georgia 30046-6387","455 GRAYSON HIGHWAY, LAWRENCEVILLE, Georgia 30046",33.9396253,-83.9823649
"980 LAWRENCEVILLE HWY, LAWRENCEVILLE, Georgia 30046","980 LAWRENCEVILLE HWY, LAWRENCEVILLE, Georgia 30046",33.9396281,-84.0165741
"12 SEVENTH STREET, AUBURN, Georgia 30011-3202","12 SEVENTH STREET, AUBURN, Georgia 30011",33.941362,-84.527701
"2625 BEAVER RUIN ROAD, NORCROSS, Georgia 30071-4136","2625 BEAVER RUIN ROAD, NORCROSS, Georgia 30071",33.9432038,-84.2024391
"426 EXCHANGE BOULEVARD, BETHLEHEM, Georgia 30620","426 EXCHANGE BOULEVARD, BETHLEHEM, Georgia 30620",33.943652,-83.721536
"ATHENS REGIONAL PHYSICIANS SERVICES, ATHENS, Georgia 30606-2258","ATHENS REGIONAL PHYSICIANS SERVICES, ATHENS, Georgia 30606",33.944017,-83.450177
"3780 HOLCOMB BRIDGE ROAD, NORCROSS, Georgia 30092-4877","3780 HOLCOMB BRIDGE ROAD, NORCROSS, Georgia 30092",33.9448559,-84.2228059
"1428 DUNWOODY VILLAGE PARKWAY, DUNWOODY, Georgia 30338","1428 DUNWOODY VILLAGE PARKWAY, DUNWOODY, Georgia 30338",33.9502789,-84.3327471
"2142 W. BROAD ST., ATHENS, Georgia 30606","2142 W. BROAD ST., ATHENS, Georgia 30606",33.9503016,-83.4078766
"1500 OGELTHORPE AVENUE, ATHENS, Georgia 30606","1500 OGELTHORPE AVENUE, ATHENS, Georgia 30606",33.951348,-83.43064
"3814 SATELLITE BLVD, DULUTH, Georgia 30096-5693","3814 SATELLITE BLVD, DULUTH, Georgia 30096",33.951636,-84.145813
"3405 DALLAS HWY, MARIETTA, Georgia 30064","3405 DALLAS HWY, MARIETTA, Georgia 30064",33.953349,-84.6494407
"3772 SATELLITE BLVD, DULUTH, Georgia 30096","3772 SATELLITE BLVD, DULUTH, Georgia 30096",33.953712,-84.142521
"3515 DALLAS HIGHWAY, MARIETTA, Georgia 30064-3000","3515 DALLAS HIGHWAY, MARIETTA, Georgia 30064",33.9539567,-84.6540126
"3330 PEACHTREE CORNERS CIRCLE, PEACHTREE CORNERS (NORCROSS), Georgia 30092","3330 PEACHTREE CORNERS CIRCLE, PEACHTREE CORNERS (NORCROSS), Georgia 30092",33.954302,-84.226963
"3707 LARGENT WAY, MARIETTA, Georgia 30064","3707 LARGENT WAY, MARIETTA, Georgia 30064",33.9548789,-84.6594664
"3650 STEVE REYNOLDS BOULEVARD, DULUTH, Georgia 30096","3650 STEVE REYNOLDS BOULEVARD, DULUTH, Georgia 30096",33.955139,-84.141279
"1686 ROSWELL ROAD, MARIETTA, Georgia 30062-3621","1686 ROSWELL ROAD, MARIETTA, Georgia 30062",33.9556348,-84.5015696
"2570 RIVERSIDE PARKWAY, LAWRENCEVILLE, Georgia 30046-0897","2570 RIVERSIDE PARKWAY, LAWRENCEVILLE, Georgia 30046",33.9561833,-84.0290134
"345 NORTH HARRIS STREET, ATHENS, Georgia 30601-2411","345 NORTH HARRIS STREET, ATHENS, Georgia 30601",33.9580187,-83.3882831
"738 OLD NORCROSS ROAD, LAWRENCEVILLE, Georgia 30046","738 OLD NORCROSS ROAD, LAWRENCEVILLE, Georgia 30046",33.9584009,-84.0150154
"603 OLD NORCROSS ROAD, LAWRENCEVILLE, Georgia 30046","603 OLD NORCROSS ROAD, LAWRENCEVILLE, Georgia 30046",33.9587483,-84.0083457
"410 MCKINLEY DRIVE, ATHENS, Georgia 30601","410 MCKINLEY DRIVE, ATHENS, Georgia 30601",33.9592942,-83.3555044
"1155 LAWRENCEVILLE-SUWANEE ROAD, LAWRENCEVILLE, Georgia 30043-5425","1155 LAWRENCEVILLE-SUWANEE ROAD, LAWRENCEVILLE, Georgia 30043",33.9605241,-84.0206019
"1500 OGLETHORPE AVE. BLDG 600EF, ATHENS, Georgia 30606","1500 OGLETHORPE AVE. BLDG 600EF, ATHENS, Georgia 30606",33.962672,-83.423519
"675 COLLEGE AVENUE, ATHENS, Georgia 30601","675 COLLEGE AVENUE, ATHENS, Georgia 30601",33.9629055,-83.3774801
"1270 PRINCE AVE SUITE 201, ATHENS, Georgia 30606","1270 PRINCE AVE SUITE 201, ATHENS, Georgia 30606",33.9633324,-83.39939
"1500 OGLETHORPE AVENUE, ATHENS, Georgia 30606-2180","1500 OGLETHORPE AVENUE, ATHENS, Georgia 30606",33.9641093,-83.4264459
"1500 OGLETHORPE AVE, ATHENS, Georgia 30606-2189","1500 OGLETHORPE AVE, ATHENS, Georgia 30606",33.9641093,-83.4264459
"1500 OGLETHORPE AVE, ATHENS, Georgia 30606-2188","1500 OGLETHORPE AVE, ATHENS, Georgia 30606",33.9641093,-83.4264459
"1500 OGLETHORPE AVENUE, ATHENS, Georgia 30606","1500 OGLETHORPE AVENUE, ATHENS, Georgia 30606",33.9641093,-83.4264459
"1500 OGLETHORPE AVENUE, ATHENS, Georgia 30606","1500 OGLETHORPE AVENUE, ATHENS, Georgia 30606",33.9641093,-83.4264459
"700 SUNSET DR., ATHENS, Georgia 30606","700 SUNSET DR., ATHENS, Georgia 30606",33.9653258,-83.4105727
"700 SUNSET DRIVE, ATHENS, Georgia 30606-2288","700 SUNSET DRIVE, ATHENS, Georgia 30606",33.9653258,-83.4105727
"7741 ROSWELL RD, SANDY SPRINGS, Georgia 30350","7741 ROSWELL RD, SANDY SPRINGS, Georgia 30350",33.9655832,-84.3632691
"665 DULUTH HWY., LAWRENCEVILLE, Georgia 30046-8703","665 DULUTH HWY., LAWRENCEVILLE, Georgia 30046",33.9657685,-84.0091609
"665 DULUTH HIGHWAY SUITE 401, LAWRENCEVILLE, Georgia 30046","665 DULUTH HIGHWAY SUITE 401, LAWRENCEVILLE, Georgia 30046",33.9657685,-84.0091609
"665 DULUTH HWY, LAWRENCEVILLE, Georgia 30046","665 DULUTH HWY, LAWRENCEVILLE, Georgia 30046",33.9657685,-84.0091609
"595 HURRICANE SHOALS ROAD, LAWRENCEVILLE, Georgia 30046-0000","595 HURRICANE SHOALS ROAD, LAWRENCEVILLE, Georgia 30046",33.9658166,-84.0074366
"6450 SPALDING DRIVE, NORCROSS, Georgia 30092-5244","6450 SPALDING DRIVE, NORCROSS, Georgia 30092",33.968184,-84.258088
"310 PHILIP BLVD, LAWRENCEVILLE, Georgia 30046-8700","310 PHILIP BLVD, LAWRENCEVILLE, Georgia 30046",33.968333,-84.0057866
"2000 PRINCE AVENUE, ATHENS, Georgia 30606","2000 PRINCE AVENUE, ATHENS, Georgia 30606",33.9684782,-83.4075817
"225 HAWTHORNE PARK, ATHENS, Georgia 30606-2151","225 HAWTHORNE PARK, ATHENS, Georgia 30606",33.9689652,-83.4183573
"EAST ATHENS SATELLITE, ATHENS, Georgia 30601","EAST ATHENS SATELLITE, ATHENS, Georgia 30601",33.969466,-83.386932
"2000 RIVERSIDE PARKWAY, LAWRENCEVILLE, Georgia 30043-7348","2000 RIVERSIDE PARKWAY, LAWRENCEVILLE, Georgia 30043",33.9697278,-84.0342088
"805 CAMPBELL HILL STREET NW, MARIETTA, Georgia 30060-1144","805 CAMPBELL HILL STREET NW, MARIETTA, Georgia 30060",33.9710305,-84.5523525
"760 KENNASAW AVE, MARIETTA, Georgia 30060","760 KENNASAW AVE, MARIETTA, Georgia 30060",33.972884,-84.564951
"3747 ROSWELL RD SUITE 216, MARIETTA, Georgia 30062","3747 ROSWELL RD SUITE 216, MARIETTA, Georgia 30062",33.9739184,-84.4834905
"1170 MCKENDREE CHURCH RD, LAWRENCEVILLE, Georgia 30043","1170 MCKENDREE CHURCH RD, LAWRENCEVILLE, Georgia 30043",33.974127,-84.03255
"1121 JOHNSON FERRY RD, MARIETTA, Georgia 30068","1121 JOHNSON FERRY RD, MARIETTA, Georgia 30068",33.976279,-84.415646
"5185 PEACHTREE PARKWAY, NORCROSS, Georgia 30092-6541","5185 PEACHTREE PARKWAY, NORCROSS, Georgia 30092",33.9789035,-84.2198002
"1815 SATELLITE BLVD SUITE 501, DULUTH, Georgia 30097","1815 SATELLITE BLVD SUITE 501, DULUTH, Georgia 30097",33.979737,-84.092703
"3747 ROSWELL ROAD, MARIETTA, Georgia 30062","3747 ROSWELL ROAD, MARIETTA, Georgia 30062",33.9801823,-84.4450897
"1230 JOHNSON FERRY PLACE, MARRIETTA, Georgia 30068","1230 JOHNSON FERRY PLACE, MARRIETTA, Georgia 30068",33.980451,-84.421701
"1291 STANLEY ROAD, KENNESAW, Georgia 30152","1291 STANLEY ROAD, KENNESAW, Georgia 30152",33.9855536,-84.6067272
"1160 CAPITAL AVENUE SUITE 105, WATKINSVILLE, Georgia 30680","1160 CAPITAL AVENUE SUITE 105, WATKINSVILLE, Georgia 30680",33.986291,-83.708996
"4989 PEACHTREE PARKWAY, PEACHTREE CORNERS, Georgia 30092","4989 PEACHTREE PARKWAY, PEACHTREE CORNERS, Georgia 30092",33.9875225,-84.2118468
"5150 STILESBORO ROAD, KENNESAW, Georgia 30152-7742","5150 STILESBORO ROAD, KENNESAW, Georgia 30152",33.9875887,-84.623507
"1605 COLLINS RD NW, KENNESAW, Georgia 30152","1605 COLLINS RD NW, KENNESAW, Georgia 30152",33.9920783,-84.6010616
"8640 ROSWELL RD, SANDY SPRINGS, Georgia 30350","8640 ROSWELL RD, SANDY SPRINGS, Georgia 30350",33.9926121,-84.3514363
